{
   "type": "FeatureCollection",
   "features": [
  {
    "type": "Feature",
    "geometry": {
       "type": "Point",
       "coordinates":  [ 19.8186982,41.3275459 ]
    },
    "properties": {
    "City":"Tirana",
    "Country":"Albania",
    "CostofLivingIndex":34.66,
    "RentIndex":9.6,
    "CostofLivingPlusRentIndex":22.86,
    "GroceriesIndex":26.61,
    "RestaurantPriceIndex":30.95,
    "LocalPurchasingPowerIndex":37.61,
    "Year":2016
    }
  },
  {
    "type": "Feature",
    "geometry": {
       "type": "Point",
       "coordinates":  [ 3.0587561,36.753768 ]
    },
    "properties": {
    "City":"Algiers",
    "Country":"Algeria",
    "CostofLivingIndex":33.92,
    "RentIndex":10.12,
    "CostofLivingPlusRentIndex":22.71,
    "GroceriesIndex":34.02,
    "RestaurantPriceIndex":26.54,
    "LocalPurchasingPowerIndex":41.82,
    "Year":2016
    }
  },
  {
    "type": "Feature",
    "geometry": {
       "type": "Point",
       "coordinates":  [ -58.3815591,-34.6036844 ]
    },
    "properties": {
    "City":"Buenos Aires",
    "Country":"Argentina",
    "CostofLivingIndex":58.25,
    "RentIndex":16.83,
    "CostofLivingPlusRentIndex":38.75,
    "GroceriesIndex":46.73,
    "RestaurantPriceIndex":58.47,
    "LocalPurchasingPowerIndex":59.82,
    "Year":2016
    }
  },
  {
    "type": "Feature",
    "geometry": {
       "type": "Point",
       "coordinates":  [ 44.4991029,40.1791857 ]
    },
    "properties": {
    "City":"Yerevan",
    "Country":"Armenia",
    "CostofLivingIndex":34.56,
    "RentIndex":11.6,
    "CostofLivingPlusRentIndex":23.75,
    "GroceriesIndex":26.56,
    "RestaurantPriceIndex":31.68,
    "LocalPurchasingPowerIndex":33.66,
    "Year":2016
    }
  },
  {
    "type": "Feature",
    "geometry": {
       "type": "Point",
       "coordinates":  [ 138.6007456,-34.9284989 ]
    },
    "properties": {
    "City":"Adelaide",
    "Country":"Australia",
    "CostofLivingIndex":79.34,
    "RentIndex":33.66,
    "CostofLivingPlusRentIndex":57.83,
    "GroceriesIndex":74,
    "RestaurantPriceIndex":78.34,
    "LocalPurchasingPowerIndex":137.87,
    "Year":2016
    }
  },
  {
    "type": "Feature",
    "geometry": {
       "type": "Point",
       "coordinates":  [ 153.0251235,-27.4697707 ]
    },
    "properties": {
    "City":"Brisbane",
    "Country":"Australia",
    "CostofLivingIndex":78.97,
    "RentIndex":46.68,
    "CostofLivingPlusRentIndex":63.76,
    "GroceriesIndex":71.87,
    "RestaurantPriceIndex":78.81,
    "LocalPurchasingPowerIndex":131.13,
    "Year":2016
    }
  },
  {
    "type": "Feature",
    "geometry": {
       "type": "Point",
       "coordinates":  [ 145.7780548,-16.9185514 ]
    },
    "properties": {
    "City":"Cairns",
    "Country":"Australia",
    "CostofLivingIndex":78.5,
    "RentIndex":30.75,
    "CostofLivingPlusRentIndex":56.02,
    "GroceriesIndex":72.96,
    "RestaurantPriceIndex":79.96,
    "LocalPurchasingPowerIndex":87.29,
    "Year":2016
    }
  },
  {
    "type": "Feature",
    "geometry": {
       "type": "Point",
       "coordinates":  [ 149.1300092,-35.2809368 ]
    },
    "properties": {
    "City":"Canberra",
    "Country":"Australia",
    "CostofLivingIndex":75.97,
    "RentIndex":44.15,
    "CostofLivingPlusRentIndex":60.99,
    "GroceriesIndex":73.4,
    "RestaurantPriceIndex":75.45,
    "LocalPurchasingPowerIndex":164.92,
    "Year":2016
    }
  },
  {
    "type": "Feature",
    "geometry": {
       "type": "Point",
       "coordinates":  [ 130.8456418,-12.4634403 ]
    },
    "properties": {
    "City":"Darwin",
    "Country":"Australia",
    "CostofLivingIndex":88.44,
    "RentIndex":45.92,
    "CostofLivingPlusRentIndex":68.42,
    "GroceriesIndex":91.04,
    "RestaurantPriceIndex":92.33,
    "LocalPurchasingPowerIndex":121.99,
    "Year":2016
    }
  },
  {
    "type": "Feature",
    "geometry": {
       "type": "Point",
       "coordinates":  [ 153.4,-28.016667 ]
    },
    "properties": {
    "City":"Gold Coast",
    "Country":"Australia",
    "CostofLivingIndex":74.66,
    "RentIndex":37.66,
    "CostofLivingPlusRentIndex":57.24,
    "GroceriesIndex":69.54,
    "RestaurantPriceIndex":70.4,
    "LocalPurchasingPowerIndex":130.71,
    "Year":2016
    }
  },
  {
    "type": "Feature",
    "geometry": {
       "type": "Point",
       "coordinates":  [ 147.3271949,-42.8821377 ]
    },
    "properties": {
    "City":"Hobart",
    "Country":"Australia",
    "CostofLivingIndex":79.52,
    "RentIndex":29.52,
    "CostofLivingPlusRentIndex":55.98,
    "GroceriesIndex":74.64,
    "RestaurantPriceIndex":86.37,
    "LocalPurchasingPowerIndex":110.79,
    "Year":2016
    }
  },
  {
    "type": "Feature",
    "geometry": {
       "type": "Point",
       "coordinates":  [ 144.9630576,-37.8136276 ]
    },
    "properties": {
    "City":"Melbourne",
    "Country":"Australia",
    "CostofLivingIndex":78.04,
    "RentIndex":44.15,
    "CostofLivingPlusRentIndex":62.08,
    "GroceriesIndex":72.32,
    "RestaurantPriceIndex":74.05,
    "LocalPurchasingPowerIndex":142.32,
    "Year":2016
    }
  },
  {
    "type": "Feature",
    "geometry": {
       "type": "Point",
       "coordinates":  [ 151.7816802,-32.9282712 ]
    },
    "properties": {
    "City":"Newcastle",
    "Country":"Australia",
    "CostofLivingIndex":76.56,
    "RentIndex":42.79,
    "CostofLivingPlusRentIndex":60.66,
    "GroceriesIndex":76.51,
    "RestaurantPriceIndex":79.19,
    "LocalPurchasingPowerIndex":141.59,
    "Year":2016
    }
  },
  {
    "type": "Feature",
    "geometry": {
       "type": "Point",
       "coordinates":  [ 115.8604572,-31.9505269 ]
    },
    "properties": {
    "City":"Perth",
    "Country":"Australia",
    "CostofLivingIndex":86.87,
    "RentIndex":42.75,
    "CostofLivingPlusRentIndex":66.09,
    "GroceriesIndex":80.75,
    "RestaurantPriceIndex":93.7,
    "LocalPurchasingPowerIndex":132.36,
    "Year":2016
    }
  },
  {
    "type": "Feature",
    "geometry": {
       "type": "Point",
       "coordinates":  [ 151.2092955,-33.8688197 ]
    },
    "properties": {
    "City":"Sydney",
    "Country":"Australia",
    "CostofLivingIndex":85.51,
    "RentIndex":64.78,
    "CostofLivingPlusRentIndex":75.75,
    "GroceriesIndex":77,
    "RestaurantPriceIndex":73.17,
    "LocalPurchasingPowerIndex":120.51,
    "Year":2016
    }
  },
  {
    "type": "Feature",
    "geometry": {
       "type": "Point",
       "coordinates":  [ 15.439504,47.070714 ]
    },
    "properties": {
    "City":"Graz",
    "Country":"Austria",
    "CostofLivingIndex":63.95,
    "RentIndex":21.68,
    "CostofLivingPlusRentIndex":44.05,
    "GroceriesIndex":50.22,
    "RestaurantPriceIndex":62.74,
    "LocalPurchasingPowerIndex":130.65,
    "Year":2016
    }
  },
  {
    "type": "Feature",
    "geometry": {
       "type": "Point",
       "coordinates":  [ 14.28583,48.30694 ]
    },
    "properties": {
    "City":"Linz",
    "Country":"Austria",
    "CostofLivingIndex":80.37,
    "RentIndex":28.29,
    "CostofLivingPlusRentIndex":55.85,
    "GroceriesIndex":75.05,
    "RestaurantPriceIndex":78.92,
    "LocalPurchasingPowerIndex":100.03,
    "Year":2016
    }
  },
  {
    "type": "Feature",
    "geometry": {
       "type": "Point",
       "coordinates":  [ 16.3738189,48.2081743 ]
    },
    "properties": {
    "City":"Vienna",
    "Country":"Austria",
    "CostofLivingIndex":67.77,
    "RentIndex":31.97,
    "CostofLivingPlusRentIndex":50.91,
    "GroceriesIndex":59.63,
    "RestaurantPriceIndex":68.95,
    "LocalPurchasingPowerIndex":108.84,
    "Year":2016
    }
  },
  {
    "type": "Feature",
    "geometry": {
       "type": "Point",
       "coordinates":  [ 49.8670924,40.4092617 ]
    },
    "properties": {
    "City":"Baku",
    "Country":"Azerbaijan",
    "CostofLivingIndex":29.25,
    "RentIndex":10.84,
    "CostofLivingPlusRentIndex":20.58,
    "GroceriesIndex":24.09,
    "RestaurantPriceIndex":32.12,
    "LocalPurchasingPowerIndex":35.76,
    "Year":2016
    }
  },
  {
    "type": "Feature",
    "geometry": {
       "type": "Point",
       "coordinates":  [ -77.355413,25.0479835 ]
    },
    "properties": {
    "City":"Nassau",
    "Country":"Bahamas",
    "CostofLivingIndex":99.74,
    "RentIndex":38.38,
    "CostofLivingPlusRentIndex":70.84,
    "GroceriesIndex":92.09,
    "RestaurantPriceIndex":96.24,
    "LocalPurchasingPowerIndex":43.77,
    "Year":2016
    }
  },
  {
    "type": "Feature",
    "geometry": {
       "type": "Point",
       "coordinates":  [ 50.5860497,26.2285161 ]
    },
    "properties": {
    "City":"Manama",
    "Country":"Bahrain",
    "CostofLivingIndex":53.9,
    "RentIndex":33.35,
    "CostofLivingPlusRentIndex":44.22,
    "GroceriesIndex":48.46,
    "RestaurantPriceIndex":53.36,
    "LocalPurchasingPowerIndex":109.42,
    "Year":2016
    }
  },
  {
    "type": "Feature",
    "geometry": {
       "type": "Point",
       "coordinates":  [ 90.4125181,23.810332 ]
    },
    "properties": {
    "City":"Dhaka",
    "Country":"Bangladesh",
    "CostofLivingIndex":36.29,
    "RentIndex":6.81,
    "CostofLivingPlusRentIndex":22.41,
    "GroceriesIndex":30.64,
    "RestaurantPriceIndex":25.92,
    "LocalPurchasingPowerIndex":40.49,
    "Year":2016
    }
  },
  {
    "type": "Feature",
    "geometry": {
       "type": "Point",
       "coordinates":  [ 27.5615244,53.9045398 ]
    },
    "properties": {
    "City":"Minsk",
    "Country":"Belarus",
    "CostofLivingIndex":33.93,
    "RentIndex":13.09,
    "CostofLivingPlusRentIndex":24.12,
    "GroceriesIndex":27.39,
    "RestaurantPriceIndex":37.85,
    "LocalPurchasingPowerIndex":39.74,
    "Year":2016
    }
  },
  {
    "type": "Feature",
    "geometry": {
       "type": "Point",
       "coordinates":  [ 4.4024643,51.2194475 ]
    },
    "properties": {
    "City":"Antwerp",
    "Country":"Belgium",
    "CostofLivingIndex":79.2,
    "RentIndex":27.41,
    "CostofLivingPlusRentIndex":54.81,
    "GroceriesIndex":70.48,
    "RestaurantPriceIndex":89.04,
    "LocalPurchasingPowerIndex":99.12,
    "Year":2016
    }
  },
  {
    "type": "Feature",
    "geometry": {
       "type": "Point",
       "coordinates":  [ 4.3517211,50.8503463 ]
    },
    "properties": {
    "City":"Brussels",
    "Country":"Belgium",
    "CostofLivingIndex":77.13,
    "RentIndex":32.58,
    "CostofLivingPlusRentIndex":56.15,
    "GroceriesIndex":66.25,
    "RestaurantPriceIndex":86.92,
    "LocalPurchasingPowerIndex":107.5,
    "Year":2016
    }
  },
  {
    "type": "Feature",
    "geometry": {
       "type": "Point",
       "coordinates":  [ 3.7174243,51.0543422 ]
    },
    "properties": {
    "City":"Gent",
    "Country":"Belgium",
    "CostofLivingIndex":81.51,
    "RentIndex":26.18,
    "CostofLivingPlusRentIndex":55.46,
    "GroceriesIndex":74.51,
    "RestaurantPriceIndex":86.46,
    "LocalPurchasingPowerIndex":95.19,
    "Year":2016
    }
  },
  {
    "type": "Feature",
    "geometry": {
       "type": "Point",
       "coordinates":  [ 4.7005176,50.8798438 ]
    },
    "properties": {
    "City":"Leuven",
    "Country":"Belgium",
    "CostofLivingIndex":79.98,
    "RentIndex":27.04,
    "CostofLivingPlusRentIndex":55.06,
    "GroceriesIndex":78.84,
    "RestaurantPriceIndex":77.48,
    "LocalPurchasingPowerIndex":89.13,
    "Year":2016
    }
  },
  {
    "type": "Feature",
    "geometry": {
       "type": "Point",
       "coordinates":  [ -64.7858887,32.2945837 ]
    },
    "properties": {
    "City":"Hamilton",
    "Country":"Bermuda",
    "CostofLivingIndex":133.26,
    "RentIndex":112.14,
    "CostofLivingPlusRentIndex":123.32,
    "GroceriesIndex":121.17,
    "RestaurantPriceIndex":138.91,
    "LocalPurchasingPowerIndex":129.67,
    "Year":2016
    }
  },
  {
    "type": "Feature",
    "geometry": {
       "type": "Point",
       "coordinates":  [ 17.191,44.7721811 ]
    },
    "properties": {
    "City":"Banja Luka",
    "Country":"Bosnia And Herzegovina",
    "CostofLivingIndex":35.66,
    "RentIndex":6.73,
    "CostofLivingPlusRentIndex":22.04,
    "GroceriesIndex":28.4,
    "RestaurantPriceIndex":26.8,
    "LocalPurchasingPowerIndex":55.04,
    "Year":2016
    }
  },
  {
    "type": "Feature",
    "geometry": {
       "type": "Point",
       "coordinates":  [ 18.4130763,43.8562586 ]
    },
    "properties": {
    "City":"Sarajevo",
    "Country":"Bosnia And Herzegovina",
    "CostofLivingIndex":36.81,
    "RentIndex":8.33,
    "CostofLivingPlusRentIndex":23.4,
    "GroceriesIndex":29.92,
    "RestaurantPriceIndex":28.7,
    "LocalPurchasingPowerIndex":53.74,
    "Year":2016
    }
  },
  {
    "type": "Feature",
    "geometry": {
       "type": "Point",
       "coordinates":  [ -43.9344931,-19.9166813 ]
    },
    "properties": {
    "City":"Belo Horizonte",
    "Country":"Brazil",
    "CostofLivingIndex":46.94,
    "RentIndex":13.22,
    "CostofLivingPlusRentIndex":31.07,
    "GroceriesIndex":37.26,
    "RestaurantPriceIndex":34.83,
    "LocalPurchasingPowerIndex":44.89,
    "Year":2016
    }
  },
  {
    "type": "Feature",
    "geometry": {
       "type": "Point",
       "coordinates":  [ -47.9218204,-15.826691 ]
    },
    "properties": {
    "City":"Brasilia",
    "Country":"Brazil",
    "CostofLivingIndex":51.46,
    "RentIndex":17.01,
    "CostofLivingPlusRentIndex":35.24,
    "GroceriesIndex":39.84,
    "RestaurantPriceIndex":46.02,
    "LocalPurchasingPowerIndex":59.25,
    "Year":2016
    }
  },
  {
    "type": "Feature",
    "geometry": {
       "type": "Point",
       "coordinates":  [ -47.073845,-22.9329252 ]
    },
    "properties": {
    "City":"Campinas",
    "Country":"Brazil",
    "CostofLivingIndex":53.12,
    "RentIndex":16.88,
    "CostofLivingPlusRentIndex":36.06,
    "GroceriesIndex":40.43,
    "RestaurantPriceIndex":41.82,
    "LocalPurchasingPowerIndex":57.84,
    "Year":2016
    }
  },
  {
    "type": "Feature",
    "geometry": {
       "type": "Point",
       "coordinates":  [ -49.3044253,-25.4808762 ]
    },
    "properties": {
    "City":"Curitiba",
    "Country":"Brazil",
    "CostofLivingIndex":46.88,
    "RentIndex":12.76,
    "CostofLivingPlusRentIndex":30.81,
    "GroceriesIndex":36.32,
    "RestaurantPriceIndex":38.94,
    "LocalPurchasingPowerIndex":51.73,
    "Year":2016
    }
  },
  {
    "type": "Feature",
    "geometry": {
       "type": "Point",
       "coordinates":  [ -48.5482195,-27.5948698 ]
    },
    "properties": {
    "City":"Florianopolis",
    "Country":"Brazil",
    "CostofLivingIndex":47.82,
    "RentIndex":14.07,
    "CostofLivingPlusRentIndex":31.93,
    "GroceriesIndex":37.11,
    "RestaurantPriceIndex":40.28,
    "LocalPurchasingPowerIndex":49.19,
    "Year":2016
    }
  },
  {
    "type": "Feature",
    "geometry": {
       "type": "Point",
       "coordinates":  [ -51.2176584,-30.0346471 ]
    },
    "properties": {
    "City":"Porto Alegre",
    "Country":"Brazil",
    "CostofLivingIndex":49.84,
    "RentIndex":13.36,
    "CostofLivingPlusRentIndex":32.66,
    "GroceriesIndex":38.76,
    "RestaurantPriceIndex":41.31,
    "LocalPurchasingPowerIndex":51.62,
    "Year":2016
    }
  },
  {
    "type": "Feature",
    "geometry": {
       "type": "Point",
       "coordinates":  [ -34.9286096,-8.0522404 ]
    },
    "properties": {
    "City":"Recife",
    "Country":"Brazil",
    "CostofLivingIndex":50.25,
    "RentIndex":13.65,
    "CostofLivingPlusRentIndex":33.02,
    "GroceriesIndex":42.1,
    "RestaurantPriceIndex":34.71,
    "LocalPurchasingPowerIndex":41.76,
    "Year":2016
    }
  },
  {
    "type": "Feature",
    "geometry": {
       "type": "Point",
       "coordinates":  [ -43.1728965,-22.9068467 ]
    },
    "properties": {
    "City":"Rio De Janeiro",
    "Country":"Brazil",
    "CostofLivingIndex":56.26,
    "RentIndex":23.99,
    "CostofLivingPlusRentIndex":41.06,
    "GroceriesIndex":39.84,
    "RestaurantPriceIndex":50.61,
    "LocalPurchasingPowerIndex":46.38,
    "Year":2016
    }
  },
  {
    "type": "Feature",
    "geometry": {
       "type": "Point",
       "coordinates":  [ -46.6333094,-23.5505199 ]
    },
    "properties": {
    "City":"Sao Paulo",
    "Country":"Brazil",
    "CostofLivingIndex":54.19,
    "RentIndex":21.85,
    "CostofLivingPlusRentIndex":38.96,
    "GroceriesIndex":41.02,
    "RestaurantPriceIndex":48.29,
    "LocalPurchasingPowerIndex":43.82,
    "Year":2016
    }
  },
  {
    "type": "Feature",
    "geometry": {
       "type": "Point",
       "coordinates":  [ 24.7452904,42.1354079 ]
    },
    "properties": {
    "City":"Plovdiv",
    "Country":"Bulgaria",
    "CostofLivingIndex":36.18,
    "RentIndex":7.42,
    "CostofLivingPlusRentIndex":22.64,
    "GroceriesIndex":30.48,
    "RestaurantPriceIndex":29.79,
    "LocalPurchasingPowerIndex":48.3,
    "Year":2016
    }
  },
  {
    "type": "Feature",
    "geometry": {
       "type": "Point",
       "coordinates":  [ 23.3218675,42.6977082 ]
    },
    "properties": {
    "City":"Sofia",
    "Country":"Bulgaria",
    "CostofLivingIndex":38.7,
    "RentIndex":10.94,
    "CostofLivingPlusRentIndex":25.63,
    "GroceriesIndex":32.08,
    "RestaurantPriceIndex":31.21,
    "LocalPurchasingPowerIndex":59.88,
    "Year":2016
    }
  },
  {
    "type": "Feature",
    "geometry": {
       "type": "Point",
       "coordinates":  [ 27.9147333,43.2140504 ]
    },
    "properties": {
    "City":"Varna",
    "Country":"Bulgaria",
    "CostofLivingIndex":36.48,
    "RentIndex":8,
    "CostofLivingPlusRentIndex":23.07,
    "GroceriesIndex":31.04,
    "RestaurantPriceIndex":29.62,
    "LocalPurchasingPowerIndex":45.72,
    "Year":2016
    }
  },
  {
    "type": "Feature",
    "geometry": {
       "type": "Point",
       "coordinates":  [ 104.9282099,11.5563738 ]
    },
    "properties": {
    "City":"Phnom Penh",
    "Country":"Cambodia",
    "CostofLivingIndex":49.38,
    "RentIndex":21.65,
    "CostofLivingPlusRentIndex":36.32,
    "GroceriesIndex":52.83,
    "RestaurantPriceIndex":22.51,
    "LocalPurchasingPowerIndex":21.55,
    "Year":2016
    }
  },
  {
    "type": "Feature",
    "geometry": {
       "type": "Point",
       "coordinates":  [ -79.6903316,44.3893556 ]
    },
    "properties": {
    "City":"Barrie",
    "Country":"Canada",
    "CostofLivingIndex":70.65,
    "RentIndex":27.03,
    "CostofLivingPlusRentIndex":50.11,
    "GroceriesIndex":69.04,
    "RestaurantPriceIndex":62.51,
    "LocalPurchasingPowerIndex":132.95,
    "Year":2016
    }
  },
  {
    "type": "Feature",
    "geometry": {
       "type": "Point",
       "coordinates":  [ -114.0708459,51.0486151 ]
    },
    "properties": {
    "City":"Calgary",
    "Country":"Canada",
    "CostofLivingIndex":75.59,
    "RentIndex":35.69,
    "CostofLivingPlusRentIndex":56.8,
    "GroceriesIndex":74.44,
    "RestaurantPriceIndex":73.66,
    "LocalPurchasingPowerIndex":133,
    "Year":2016
    }
  },
  {
    "type": "Feature",
    "geometry": {
       "type": "Point",
       "coordinates":  [ -113.4909267,53.544389 ]
    },
    "properties": {
    "City":"Edmonton",
    "Country":"Canada",
    "CostofLivingIndex":73.06,
    "RentIndex":30.22,
    "CostofLivingPlusRentIndex":52.89,
    "GroceriesIndex":70.74,
    "RestaurantPriceIndex":70.87,
    "LocalPurchasingPowerIndex":116.49,
    "Year":2016
    }
  },
  {
    "type": "Feature",
    "geometry": {
       "type": "Point",
       "coordinates":  [ -80.2481666,43.5448048 ]
    },
    "properties": {
    "City":"Guelph",
    "Country":"Canada",
    "CostofLivingIndex":67.01,
    "RentIndex":27.88,
    "CostofLivingPlusRentIndex":48.58,
    "GroceriesIndex":62.84,
    "RestaurantPriceIndex":64.47,
    "LocalPurchasingPowerIndex":100.78,
    "Year":2016
    }
  },
  {
    "type": "Feature",
    "geometry": {
       "type": "Point",
       "coordinates":  [ -63.5752387,44.6487635 ]
    },
    "properties": {
    "City":"Halifax",
    "Country":"Canada",
    "CostofLivingIndex":75.05,
    "RentIndex":26.91,
    "CostofLivingPlusRentIndex":52.38,
    "GroceriesIndex":77.71,
    "RestaurantPriceIndex":74.58,
    "LocalPurchasingPowerIndex":104.39,
    "Year":2016
    }
  },
  {
    "type": "Feature",
    "geometry": {
       "type": "Point",
       "coordinates":  [ -79.8711024,43.2557206 ]
    },
    "properties": {
    "City":"Hamilton",
    "Country":"Canada",
    "CostofLivingIndex":59.9,
    "RentIndex":23.14,
    "CostofLivingPlusRentIndex":42.59,
    "GroceriesIndex":54.54,
    "RestaurantPriceIndex":59.37,
    "LocalPurchasingPowerIndex":151.38,
    "Year":2016
    }
  },
  {
    "type": "Feature",
    "geometry": {
       "type": "Point",
       "coordinates":  [ -119.4960106,49.8879519 ]
    },
    "properties": {
    "City":"Kelowna",
    "Country":"Canada",
    "CostofLivingIndex":64.99,
    "RentIndex":30.58,
    "CostofLivingPlusRentIndex":48.79,
    "GroceriesIndex":62.44,
    "RestaurantPriceIndex":66.14,
    "LocalPurchasingPowerIndex":121.53,
    "Year":2016
    }
  },
  {
    "type": "Feature",
    "geometry": {
       "type": "Point",
       "coordinates":  [ -80.4925337,43.4516395 ]
    },
    "properties": {
    "City":"Kitchener",
    "Country":"Canada",
    "CostofLivingIndex":61.97,
    "RentIndex":25.18,
    "CostofLivingPlusRentIndex":44.64,
    "GroceriesIndex":55.13,
    "RestaurantPriceIndex":65.24,
    "LocalPurchasingPowerIndex":110.89,
    "Year":2016
    }
  },
  {
    "type": "Feature",
    "geometry": {
       "type": "Point",
       "coordinates":  [ -81.2452768,42.9849233 ]
    },
    "properties": {
    "City":"London",
    "Country":"Canada",
    "CostofLivingIndex":69.28,
    "RentIndex":23.59,
    "CostofLivingPlusRentIndex":47.77,
    "GroceriesIndex":69.51,
    "RestaurantPriceIndex":65.77,
    "LocalPurchasingPowerIndex":144.9,
    "Year":2016
    }
  },
  {
    "type": "Feature",
    "geometry": {
       "type": "Point",
       "coordinates":  [ -79.6441198,43.5890452 ]
    },
    "properties": {
    "City":"Mississauga",
    "Country":"Canada",
    "CostofLivingIndex":72.19,
    "RentIndex":34.73,
    "CostofLivingPlusRentIndex":54.55,
    "GroceriesIndex":67.78,
    "RestaurantPriceIndex":64.44,
    "LocalPurchasingPowerIndex":114.87,
    "Year":2016
    }
  },
  {
    "type": "Feature",
    "geometry": {
       "type": "Point",
       "coordinates":  [ -64.7782313,46.0878165 ]
    },
    "properties": {
    "City":"Moncton",
    "Country":"Canada",
    "CostofLivingIndex":63.78,
    "RentIndex":18.84,
    "CostofLivingPlusRentIndex":42.62,
    "GroceriesIndex":62.8,
    "RestaurantPriceIndex":64.47,
    "LocalPurchasingPowerIndex":100.19,
    "Year":2016
    }
  },
  {
    "type": "Feature",
    "geometry": {
       "type": "Point",
       "coordinates":  [ -73.567256,45.5016889 ]
    },
    "properties": {
    "City":"Montreal",
    "Country":"Canada",
    "CostofLivingIndex":67.01,
    "RentIndex":24.8,
    "CostofLivingPlusRentIndex":47.13,
    "GroceriesIndex":67.36,
    "RestaurantPriceIndex":62.73,
    "LocalPurchasingPowerIndex":115.26,
    "Year":2016
    }
  },
  {
    "type": "Feature",
    "geometry": {
       "type": "Point",
       "coordinates":  [ -75.6971931,45.4215296 ]
    },
    "properties": {
    "City":"Ottawa",
    "Country":"Canada",
    "CostofLivingIndex":67.78,
    "RentIndex":30.36,
    "CostofLivingPlusRentIndex":50.16,
    "GroceriesIndex":62.92,
    "RestaurantPriceIndex":64.86,
    "LocalPurchasingPowerIndex":118.69,
    "Year":2016
    }
  },
  {
    "type": "Feature",
    "geometry": {
       "type": "Point",
       "coordinates":  [ -71.2079809,46.8138783 ]
    },
    "properties": {
    "City":"Quebec City",
    "Country":"Canada",
    "CostofLivingIndex":68.16,
    "RentIndex":19.34,
    "CostofLivingPlusRentIndex":45.17,
    "GroceriesIndex":68.12,
    "RestaurantPriceIndex":72.53,
    "LocalPurchasingPowerIndex":126.53,
    "Year":2016
    }
  },
  {
    "type": "Feature",
    "geometry": {
       "type": "Point",
       "coordinates":  [ -113.8112386,52.2681118 ]
    },
    "properties": {
    "City":"Red Deer",
    "Country":"Canada",
    "CostofLivingIndex":74.37,
    "RentIndex":27.38,
    "CostofLivingPlusRentIndex":52.24,
    "GroceriesIndex":69.18,
    "RestaurantPriceIndex":61.18,
    "LocalPurchasingPowerIndex":108.46,
    "Year":2016
    }
  },
  {
    "type": "Feature",
    "geometry": {
       "type": "Point",
       "coordinates":  [ -104.6188943,50.4452112 ]
    },
    "properties": {
    "City":"Regina",
    "Country":"Canada",
    "CostofLivingIndex":72.51,
    "RentIndex":29.22,
    "CostofLivingPlusRentIndex":52.13,
    "GroceriesIndex":71.65,
    "RestaurantPriceIndex":71.19,
    "LocalPurchasingPowerIndex":99.54,
    "Year":2016
    }
  },
  {
    "type": "Feature",
    "geometry": {
       "type": "Point",
       "coordinates":  [ -106.6700458,52.1332144 ]
    },
    "properties": {
    "City":"Saskatoon",
    "Country":"Canada",
    "CostofLivingIndex":73.8,
    "RentIndex":27.64,
    "CostofLivingPlusRentIndex":52.06,
    "GroceriesIndex":77,
    "RestaurantPriceIndex":71.08,
    "LocalPurchasingPowerIndex":127.65,
    "Year":2016
    }
  },
  {
    "type": "Feature",
    "geometry": {
       "type": "Point",
       "coordinates":  [ -122.8490125,49.1913466 ]
    },
    "properties": {
    "City":"Surrey",
    "Country":"Canada",
    "CostofLivingIndex":65.59,
    "RentIndex":30.45,
    "CostofLivingPlusRentIndex":49.04,
    "GroceriesIndex":64.81,
    "RestaurantPriceIndex":60.95,
    "LocalPurchasingPowerIndex":100.21,
    "Year":2016
    }
  },
  {
    "type": "Feature",
    "geometry": {
       "type": "Point",
       "coordinates":  [ -79.3831843,43.653226 ]
    },
    "properties": {
    "City":"Toronto",
    "Country":"Canada",
    "CostofLivingIndex":69.5,
    "RentIndex":39.87,
    "CostofLivingPlusRentIndex":55.55,
    "GroceriesIndex":64.79,
    "RestaurantPriceIndex":62.95,
    "LocalPurchasingPowerIndex":77.57,
    "Year":2016
    }
  },
  {
    "type": "Feature",
    "geometry": {
       "type": "Point",
       "coordinates":  [ -123.1207375,49.2827291 ]
    },
    "properties": {
    "City":"Vancouver",
    "Country":"Canada",
    "CostofLivingIndex":70.54,
    "RentIndex":45.13,
    "CostofLivingPlusRentIndex":58.58,
    "GroceriesIndex":73.37,
    "RestaurantPriceIndex":67.63,
    "LocalPurchasingPowerIndex":124.88,
    "Year":2016
    }
  },
  {
    "type": "Feature",
    "geometry": {
       "type": "Point",
       "coordinates":  [ -123.3656444,48.4284207 ]
    },
    "properties": {
    "City":"Victoria",
    "Country":"Canada",
    "CostofLivingIndex":70.56,
    "RentIndex":31.55,
    "CostofLivingPlusRentIndex":52.19,
    "GroceriesIndex":73.34,
    "RestaurantPriceIndex":66.45,
    "LocalPurchasingPowerIndex":101.38,
    "Year":2016
    }
  },
  {
    "type": "Feature",
    "geometry": {
       "type": "Point",
       "coordinates":  [ -80.5204096,43.4642578 ]
    },
    "properties": {
    "City":"Waterloo",
    "Country":"Canada",
    "CostofLivingIndex":79.45,
    "RentIndex":29.89,
    "CostofLivingPlusRentIndex":56.11,
    "GroceriesIndex":76.71,
    "RestaurantPriceIndex":64.7,
    "LocalPurchasingPowerIndex":111.43,
    "Year":2016
    }
  },
  {
    "type": "Feature",
    "geometry": {
       "type": "Point",
       "coordinates":  [ -83.0363633,42.3149367 ]
    },
    "properties": {
    "City":"Windsor",
    "Country":"Canada",
    "CostofLivingIndex":72.11,
    "RentIndex":20.35,
    "CostofLivingPlusRentIndex":47.74,
    "GroceriesIndex":63.13,
    "RestaurantPriceIndex":69.21,
    "LocalPurchasingPowerIndex":138.28,
    "Year":2016
    }
  },
  {
    "type": "Feature",
    "geometry": {
       "type": "Point",
       "coordinates":  [ -97.1383744,49.895136 ]
    },
    "properties": {
    "City":"Winnipeg",
    "Country":"Canada",
    "CostofLivingIndex":68.83,
    "RentIndex":25.97,
    "CostofLivingPlusRentIndex":48.65,
    "GroceriesIndex":65.95,
    "RestaurantPriceIndex":62.36,
    "LocalPurchasingPowerIndex":120.65,
    "Year":2016
    }
  },
  {
    "type": "Feature",
    "geometry": {
       "type": "Point",
       "coordinates":  [ -70.6692655,-33.4488897 ]
    },
    "properties": {
    "City":"Santiago",
    "Country":"Chile",
    "CostofLivingIndex":50.38,
    "RentIndex":17.89,
    "CostofLivingPlusRentIndex":35.08,
    "GroceriesIndex":43.6,
    "RestaurantPriceIndex":65.36,
    "LocalPurchasingPowerIndex":102.11,
    "Year":2016
    }
  },
  {
    "type": "Feature",
    "geometry": {
       "type": "Point",
       "coordinates":  [ 116.4073963,39.9041999 ]
    },
    "properties": {
    "City":"Beijing",
    "Country":"China",
    "CostofLivingIndex":51.84,
    "RentIndex":41.96,
    "CostofLivingPlusRentIndex":47.19,
    "GroceriesIndex":51.41,
    "RestaurantPriceIndex":46.17,
    "LocalPurchasingPowerIndex":62.71,
    "Year":2016
    }
  },
  {
    "type": "Feature",
    "geometry": {
       "type": "Point",
       "coordinates":  [ 104.066801,30.572815 ]
    },
    "properties": {
    "City":"Chengdu",
    "Country":"China",
    "CostofLivingIndex":37.72,
    "RentIndex":12.05,
    "CostofLivingPlusRentIndex":25.63,
    "GroceriesIndex":33.12,
    "RestaurantPriceIndex":37.36,
    "LocalPurchasingPowerIndex":67.87,
    "Year":2016
    }
  },
  {
    "type": "Feature",
    "geometry": {
       "type": "Point",
       "coordinates":  [ 113.264385,23.12911 ]
    },
    "properties": {
    "City":"Guangzhou",
    "Country":"China",
    "CostofLivingIndex":44.77,
    "RentIndex":22.03,
    "CostofLivingPlusRentIndex":34.06,
    "GroceriesIndex":47.2,
    "RestaurantPriceIndex":25.9,
    "LocalPurchasingPowerIndex":85.05,
    "Year":2016
    }
  },
  {
    "type": "Feature",
    "geometry": {
       "type": "Point",
       "coordinates":  [ 121.4737021,31.2303904 ]
    },
    "properties": {
    "City":"Shanghai",
    "Country":"China",
    "CostofLivingIndex":54.31,
    "RentIndex":36.25,
    "CostofLivingPlusRentIndex":45.8,
    "GroceriesIndex":57.81,
    "RestaurantPriceIndex":26.34,
    "LocalPurchasingPowerIndex":75.9,
    "Year":2016
    }
  },
  {
    "type": "Feature",
    "geometry": {
       "type": "Point",
       "coordinates":  [ 114.057865,22.543096 ]
    },
    "properties": {
    "City":"Shenzhen",
    "Country":"China",
    "CostofLivingIndex":53.18,
    "RentIndex":34.51,
    "CostofLivingPlusRentIndex":44.39,
    "GroceriesIndex":57.64,
    "RestaurantPriceIndex":39.65,
    "LocalPurchasingPowerIndex":81.8,
    "Year":2016
    }
  },
  {
    "type": "Feature",
    "geometry": {
       "type": "Point",
       "coordinates":  [ -74.072092,4.7109886 ]
    },
    "properties": {
    "City":"Bogota",
    "Country":"Colombia",
    "CostofLivingIndex":36.18,
    "RentIndex":14.18,
    "CostofLivingPlusRentIndex":25.82,
    "GroceriesIndex":30.39,
    "RestaurantPriceIndex":36.31,
    "LocalPurchasingPowerIndex":85.2,
    "Year":2016
    }
  },
  {
    "type": "Feature",
    "geometry": {
       "type": "Point",
       "coordinates":  [ -76.5319854,3.4516467 ]
    },
    "properties": {
    "City":"Cali",
    "Country":"Colombia",
    "CostofLivingIndex":29.41,
    "RentIndex":7.29,
    "CostofLivingPlusRentIndex":18.99,
    "GroceriesIndex":24.06,
    "RestaurantPriceIndex":26.07,
    "LocalPurchasingPowerIndex":40.46,
    "Year":2016
    }
  },
  {
    "type": "Feature",
    "geometry": {
       "type": "Point",
       "coordinates":  [ -75.5812119,6.244203 ]
    },
    "properties": {
    "City":"Medellin",
    "Country":"Colombia",
    "CostofLivingIndex":32.14,
    "RentIndex":7.92,
    "CostofLivingPlusRentIndex":20.74,
    "GroceriesIndex":28.48,
    "RestaurantPriceIndex":22.65,
    "LocalPurchasingPowerIndex":35.29,
    "Year":2016
    }
  },
  {
    "type": "Feature",
    "geometry": {
       "type": "Point",
       "coordinates":  [ -84.0907246,9.9280694 ]
    },
    "properties": {
    "City":"San Jose",
    "Country":"Costa Rica",
    "CostofLivingIndex":60.32,
    "RentIndex":20.83,
    "CostofLivingPlusRentIndex":41.72,
    "GroceriesIndex":59.38,
    "RestaurantPriceIndex":22.24,
    "LocalPurchasingPowerIndex":42.71,
    "Year":2016
    }
  },
  {
    "type": "Feature",
    "geometry": {
       "type": "Point",
       "coordinates":  [ 18.6955144,45.5549624 ]
    },
    "properties": {
    "City":"Osijek",
    "Country":"Croatia",
    "CostofLivingIndex":45.57,
    "RentIndex":7,
    "CostofLivingPlusRentIndex":27.41,
    "GroceriesIndex":37.77,
    "RestaurantPriceIndex":49.18,
    "LocalPurchasingPowerIndex":45.17,
    "Year":2016
    }
  },
  {
    "type": "Feature",
    "geometry": {
       "type": "Point",
       "coordinates":  [ 14.442176,45.3270631 ]
    },
    "properties": {
    "City":"Rijeka",
    "Country":"Croatia",
    "CostofLivingIndex":52.19,
    "RentIndex":11.61,
    "CostofLivingPlusRentIndex":33.08,
    "GroceriesIndex":42.58,
    "RestaurantPriceIndex":30.61,
    "LocalPurchasingPowerIndex":59.82,
    "Year":2016
    }
  },
  {
    "type": "Feature",
    "geometry": {
       "type": "Point",
       "coordinates":  [ 16.4401935,43.5081323 ]
    },
    "properties": {
    "City":"Split",
    "Country":"Croatia",
    "CostofLivingIndex":52.56,
    "RentIndex":11.85,
    "CostofLivingPlusRentIndex":33.39,
    "GroceriesIndex":43.51,
    "RestaurantPriceIndex":41.16,
    "LocalPurchasingPowerIndex":54.98,
    "Year":2016
    }
  },
  {
    "type": "Feature",
    "geometry": {
       "type": "Point",
       "coordinates":  [ 15.9819189,45.8150108 ]
    },
    "properties": {
    "City":"Zagreb",
    "Country":"Croatia",
    "CostofLivingIndex":50.48,
    "RentIndex":12.81,
    "CostofLivingPlusRentIndex":32.75,
    "GroceriesIndex":42.22,
    "RestaurantPriceIndex":49.19,
    "LocalPurchasingPowerIndex":56.46,
    "Year":2016
    }
  },
  {
    "type": "Feature",
    "geometry": {
       "type": "Point",
       "coordinates":  [ 33.0226174,34.7071301 ]
    },
    "properties": {
    "City":"Limassol",
    "Country":"Cyprus",
    "CostofLivingIndex":57.89,
    "RentIndex":16.9,
    "CostofLivingPlusRentIndex":38.59,
    "GroceriesIndex":45.02,
    "RestaurantPriceIndex":40.13,
    "LocalPurchasingPowerIndex":69.54,
    "Year":2016
    }
  },
  {
    "type": "Feature",
    "geometry": {
       "type": "Point",
       "coordinates":  [ 33.3822764,35.1855659 ]
    },
    "properties": {
    "City":"Nicosia",
    "Country":"Cyprus",
    "CostofLivingIndex":63.86,
    "RentIndex":15.61,
    "CostofLivingPlusRentIndex":41.14,
    "GroceriesIndex":54.78,
    "RestaurantPriceIndex":66.97,
    "LocalPurchasingPowerIndex":101.9,
    "Year":2016
    }
  },
  {
    "type": "Feature",
    "geometry": {
       "type": "Point",
       "coordinates":  [ 16.6068371,49.1950602 ]
    },
    "properties": {
    "City":"Brno",
    "Country":"Czech Republic",
    "CostofLivingIndex":41.93,
    "RentIndex":14.69,
    "CostofLivingPlusRentIndex":29.1,
    "GroceriesIndex":36.09,
    "RestaurantPriceIndex":69.9,
    "LocalPurchasingPowerIndex":84.54,
    "Year":2016
    }
  },
  {
    "type": "Feature",
    "geometry": {
       "type": "Point",
       "coordinates":  [ 17.2508787,49.593778 ]
    },
    "properties": {
    "City":"Olomouc",
    "Country":"Czech Republic",
    "CostofLivingIndex":39.15,
    "RentIndex":11.09,
    "CostofLivingPlusRentIndex":25.93,
    "GroceriesIndex":35.38,
    "RestaurantPriceIndex":28.41,
    "LocalPurchasingPowerIndex":81.93,
    "Year":2016
    }
  },
  {
    "type": "Feature",
    "geometry": {
       "type": "Point",
       "coordinates":  [ 18.2625243,49.8209226 ]
    },
    "properties": {
    "City":"Ostrava",
    "Country":"Czech Republic",
    "CostofLivingIndex":40.5,
    "RentIndex":11,
    "CostofLivingPlusRentIndex":26.61,
    "GroceriesIndex":34.94,
    "RestaurantPriceIndex":27.61,
    "LocalPurchasingPowerIndex":85.08,
    "Year":2016
    }
  },
  {
    "type": "Feature",
    "geometry": {
       "type": "Point",
       "coordinates":  [ 14.4378005,50.0755381 ]
    },
    "properties": {
    "City":"Prague",
    "Country":"Czech Republic",
    "CostofLivingIndex":43.85,
    "RentIndex":19.47,
    "CostofLivingPlusRentIndex":32.37,
    "GroceriesIndex":36.83,
    "RestaurantPriceIndex":28.5,
    "LocalPurchasingPowerIndex":78.01,
    "Year":2016
    }
  },
  {
    "type": "Feature",
    "geometry": {
       "type": "Point",
       "coordinates":  [ 9.921747,57.0488195 ]
    },
    "properties": {
    "City":"Aalborg",
    "Country":"Denmark",
    "CostofLivingIndex":81.71,
    "RentIndex":23.53,
    "CostofLivingPlusRentIndex":54.31,
    "GroceriesIndex":63.84,
    "RestaurantPriceIndex":32.96,
    "LocalPurchasingPowerIndex":83.04,
    "Year":2016
    }
  },
  {
    "type": "Feature",
    "geometry": {
       "type": "Point",
       "coordinates":  [ 10.203921,56.162939 ]
    },
    "properties": {
    "City":"Arhus",
    "Country":"Denmark",
    "CostofLivingIndex":81.83,
    "RentIndex":32.82,
    "CostofLivingPlusRentIndex":58.75,
    "GroceriesIndex":59.12,
    "RestaurantPriceIndex":95.81,
    "LocalPurchasingPowerIndex":118.42,
    "Year":2016
    }
  },
  {
    "type": "Feature",
    "geometry": {
       "type": "Point",
       "coordinates":  [ 12.5683372,55.6760968 ]
    },
    "properties": {
    "City":"Copenhagen",
    "Country":"Denmark",
    "CostofLivingIndex":89.01,
    "RentIndex":46.18,
    "CostofLivingPlusRentIndex":68.84,
    "GroceriesIndex":68.8,
    "RestaurantPriceIndex":102.57,
    "LocalPurchasingPowerIndex":122.82,
    "Year":2016
    }
  },
  {
    "type": "Feature",
    "geometry": {
       "type": "Point",
       "coordinates":  [ -69.9312117,18.4860575 ]
    },
    "properties": {
    "City":"Santo Domingo",
    "Country":"Dominican Republic",
    "CostofLivingIndex":53.15,
    "RentIndex":15.26,
    "CostofLivingPlusRentIndex":35.31,
    "GroceriesIndex":46.26,
    "RestaurantPriceIndex":108.82,
    "LocalPurchasingPowerIndex":115.35,
    "Year":2016
    }
  },
  {
    "type": "Feature",
    "geometry": {
       "type": "Point",
       "coordinates":  [ -79.0058965,-2.9001285 ]
    },
    "properties": {
    "City":"Cuenca",
    "Country":"Ecuador",
    "CostofLivingIndex":46.4,
    "RentIndex":12.24,
    "CostofLivingPlusRentIndex":30.31,
    "GroceriesIndex":48.78,
    "RestaurantPriceIndex":42.04,
    "LocalPurchasingPowerIndex":24.4,
    "Year":2016
    }
  },
  {
    "type": "Feature",
    "geometry": {
       "type": "Point",
       "coordinates":  [ -79.9223592,-2.1709979 ]
    },
    "properties": {
    "City":"Guayaquil",
    "Country":"Ecuador",
    "CostofLivingIndex":48.76,
    "RentIndex":13.25,
    "CostofLivingPlusRentIndex":32.04,
    "GroceriesIndex":43.96,
    "RestaurantPriceIndex":27.16,
    "LocalPurchasingPowerIndex":39.79,
    "Year":2016
    }
  },
  {
    "type": "Feature",
    "geometry": {
       "type": "Point",
       "coordinates":  [ -78.4678382,-0.1806532 ]
    },
    "properties": {
    "City":"Quito",
    "Country":"Ecuador",
    "CostofLivingIndex":46.2,
    "RentIndex":15.38,
    "CostofLivingPlusRentIndex":31.69,
    "GroceriesIndex":43.43,
    "RestaurantPriceIndex":37.23,
    "LocalPurchasingPowerIndex":40.3,
    "Year":2016
    }
  },
  {
    "type": "Feature",
    "geometry": {
       "type": "Point",
       "coordinates":  [ 31.2357116,30.0444196 ]
    },
    "properties": {
    "City":"Cairo",
    "Country":"Egypt",
    "CostofLivingIndex":35.52,
    "RentIndex":9.33,
    "CostofLivingPlusRentIndex":23.19,
    "GroceriesIndex":31.49,
    "RestaurantPriceIndex":34.86,
    "LocalPurchasingPowerIndex":39.61,
    "Year":2016
    }
  },
  {
    "type": "Feature",
    "geometry": {
       "type": "Point",
       "coordinates":  [ -89.2181911,13.6929403 ]
    },
    "properties": {
    "City":"San Salvador",
    "Country":"El Salvador",
    "CostofLivingIndex":45.03,
    "RentIndex":9.83,
    "CostofLivingPlusRentIndex":28.46,
    "GroceriesIndex":40.92,
    "RestaurantPriceIndex":29.98,
    "LocalPurchasingPowerIndex":35.68,
    "Year":2016
    }
  },
  {
    "type": "Feature",
    "geometry": {
       "type": "Point",
       "coordinates":  [ 24.7535747,59.4369608 ]
    },
    "properties": {
    "City":"Tallinn",
    "Country":"Estonia",
    "CostofLivingIndex":52.73,
    "RentIndex":16.71,
    "CostofLivingPlusRentIndex":35.77,
    "GroceriesIndex":38.16,
    "RestaurantPriceIndex":32.44,
    "LocalPurchasingPowerIndex":32.31,
    "Year":2016
    }
  },
  {
    "type": "Feature",
    "geometry": {
       "type": "Point",
       "coordinates":  [ 26.7290383,58.377983 ]
    },
    "properties": {
    "City":"Tartu",
    "Country":"Estonia",
    "CostofLivingIndex":49.28,
    "RentIndex":12.59,
    "CostofLivingPlusRentIndex":32,
    "GroceriesIndex":37.99,
    "RestaurantPriceIndex":55.23,
    "LocalPurchasingPowerIndex":70.96,
    "Year":2016
    }
  },
  {
    "type": "Feature",
    "geometry": {
       "type": "Point",
       "coordinates":  [ 38.7577605,8.9806034 ]
    },
    "properties": {
    "City":"Addis Ababa",
    "Country":"Ethiopia",
    "CostofLivingIndex":45.17,
    "RentIndex":21.85,
    "CostofLivingPlusRentIndex":34.19,
    "GroceriesIndex":37.27,
    "RestaurantPriceIndex":47.37,
    "LocalPurchasingPowerIndex":78.36,
    "Year":2016
    }
  },
  {
    "type": "Feature",
    "geometry": {
       "type": "Point",
       "coordinates":  [ 23.7609535,61.4977524 ]
    },
    "properties": {
    "City":"Tampere",
    "Country":"Finland",
    "CostofLivingIndex":77.11,
    "RentIndex":24.89,
    "CostofLivingPlusRentIndex":52.52,
    "GroceriesIndex":63.45,
    "RestaurantPriceIndex":90.98,
    "LocalPurchasingPowerIndex":118.11,
    "Year":2016
    }
  },
  {
    "type": "Feature",
    "geometry": {
       "type": "Point",
       "coordinates":  [ 22.2666302,60.4518126 ]
    },
    "properties": {
    "City":"Turku",
    "Country":"Finland",
    "CostofLivingIndex":79.87,
    "RentIndex":24.08,
    "CostofLivingPlusRentIndex":53.6,
    "GroceriesIndex":66.77,
    "RestaurantPriceIndex":90.31,
    "LocalPurchasingPowerIndex":112.96,
    "Year":2016
    }
  },
  {
    "type": "Feature",
    "geometry": {
       "type": "Point",
       "coordinates":  [ 3.057256,50.62925 ]
    },
    "properties": {
    "City":"Lille",
    "Country":"France",
    "CostofLivingIndex":73.7,
    "RentIndex":24.51,
    "CostofLivingPlusRentIndex":50.54,
    "GroceriesIndex":64.51,
    "RestaurantPriceIndex":88.98,
    "LocalPurchasingPowerIndex":124.37,
    "Year":2016
    }
  },
  {
    "type": "Feature",
    "geometry": {
       "type": "Point",
       "coordinates":  [ 4.835659,45.764043 ]
    },
    "properties": {
    "City":"Lyon",
    "Country":"France",
    "CostofLivingIndex":80.9,
    "RentIndex":23.76,
    "CostofLivingPlusRentIndex":54,
    "GroceriesIndex":75.57,
    "RestaurantPriceIndex":71.35,
    "LocalPurchasingPowerIndex":104.83,
    "Year":2016
    }
  },
  {
    "type": "Feature",
    "geometry": {
       "type": "Point",
       "coordinates":  [ 5.36978,43.296482 ]
    },
    "properties": {
    "City":"Marseille",
    "Country":"France",
    "CostofLivingIndex":65.07,
    "RentIndex":22.26,
    "CostofLivingPlusRentIndex":44.91,
    "GroceriesIndex":57.97,
    "RestaurantPriceIndex":76.21,
    "LocalPurchasingPowerIndex":106.72,
    "Year":2016
    }
  },
  {
    "type": "Feature",
    "geometry": {
       "type": "Point",
       "coordinates":  [ 2.3522219,48.856614 ]
    },
    "properties": {
    "City":"Paris",
    "Country":"France",
    "CostofLivingIndex":84.34,
    "RentIndex":45.94,
    "CostofLivingPlusRentIndex":66.26,
    "GroceriesIndex":78.45,
    "RestaurantPriceIndex":68.76,
    "LocalPurchasingPowerIndex":111.98,
    "Year":2016
    }
  },
  {
    "type": "Feature",
    "geometry": {
       "type": "Point",
       "coordinates":  [ 1.444209,43.604652 ]
    },
    "properties": {
    "City":"Toulouse",
    "Country":"France",
    "CostofLivingIndex":74.76,
    "RentIndex":25.66,
    "CostofLivingPlusRentIndex":51.64,
    "GroceriesIndex":69.93,
    "RestaurantPriceIndex":72.59,
    "LocalPurchasingPowerIndex":131.19,
    "Year":2016
    }
  },
  {
    "type": "Feature",
    "geometry": {
       "type": "Point",
       "coordinates":  [ 44.827096,41.7151377 ]
    },
    "properties": {
    "City":"Tbilisi",
    "Country":"Georgia",
    "CostofLivingIndex":32.53,
    "RentIndex":11.28,
    "CostofLivingPlusRentIndex":22.53,
    "GroceriesIndex":26.21,
    "RestaurantPriceIndex":83.85,
    "LocalPurchasingPowerIndex":100.24,
    "Year":2016
    }
  },
  {
    "type": "Feature",
    "geometry": {
       "type": "Point",
       "coordinates":  [ 6.0838868,50.7753455 ]
    },
    "properties": {
    "City":"Aachen",
    "Country":"Germany",
    "CostofLivingIndex":62.14,
    "RentIndex":22.3,
    "CostofLivingPlusRentIndex":43.38,
    "GroceriesIndex":52.39,
    "RestaurantPriceIndex":77.48,
    "LocalPurchasingPowerIndex":117.27,
    "Year":2016
    }
  },
  {
    "type": "Feature",
    "geometry": {
       "type": "Point",
       "coordinates":  [ 13.404954,52.5200066 ]
    },
    "properties": {
    "City":"Berlin",
    "Country":"Germany",
    "CostofLivingIndex":65.68,
    "RentIndex":27.97,
    "CostofLivingPlusRentIndex":47.92,
    "GroceriesIndex":52.12,
    "RestaurantPriceIndex":31.66,
    "LocalPurchasingPowerIndex":33.64,
    "Year":2016
    }
  },
  {
    "type": "Feature",
    "geometry": {
       "type": "Point",
       "coordinates":  [ 7.0982068,50.73743 ]
    },
    "properties": {
    "City":"Bonn",
    "Country":"Germany",
    "CostofLivingIndex":65.25,
    "RentIndex":28,
    "CostofLivingPlusRentIndex":47.71,
    "GroceriesIndex":44.66,
    "RestaurantPriceIndex":56.62,
    "LocalPurchasingPowerIndex":153.14,
    "Year":2016
    }
  },
  {
    "type": "Feature",
    "geometry": {
       "type": "Point",
       "coordinates":  [ 8.8016936,53.0792962 ]
    },
    "properties": {
    "City":"Bremen",
    "Country":"Germany",
    "CostofLivingIndex":60.75,
    "RentIndex":21.52,
    "CostofLivingPlusRentIndex":42.28,
    "GroceriesIndex":41.66,
    "RestaurantPriceIndex":57.43,
    "LocalPurchasingPowerIndex":122.4,
    "Year":2016
    }
  },
  {
    "type": "Feature",
    "geometry": {
       "type": "Point",
       "coordinates":  [ 6.9602786,50.937531 ]
    },
    "properties": {
    "City":"Cologne",
    "Country":"Germany",
    "CostofLivingIndex":70.37,
    "RentIndex":28.13,
    "CostofLivingPlusRentIndex":50.48,
    "GroceriesIndex":51.58,
    "RestaurantPriceIndex":68.74,
    "LocalPurchasingPowerIndex":110.13,
    "Year":2016
    }
  },
  {
    "type": "Feature",
    "geometry": {
       "type": "Point",
       "coordinates":  [ 13.7372621,51.0504088 ]
    },
    "properties": {
    "City":"Dresden",
    "Country":"Germany",
    "CostofLivingIndex":60.77,
    "RentIndex":20,
    "CostofLivingPlusRentIndex":41.57,
    "GroceriesIndex":45.74,
    "RestaurantPriceIndex":65.33,
    "LocalPurchasingPowerIndex":161.8,
    "Year":2016
    }
  },
  {
    "type": "Feature",
    "geometry": {
       "type": "Point",
       "coordinates":  [ 6.7734556,51.2277411 ]
    },
    "properties": {
    "City":"Dusseldorf",
    "Country":"Germany",
    "CostofLivingIndex":91.99,
    "RentIndex":39.27,
    "CostofLivingPlusRentIndex":67.16,
    "GroceriesIndex":82.97,
    "RestaurantPriceIndex":69.61,
    "LocalPurchasingPowerIndex":115.68,
    "Year":2016
    }
  },
  {
    "type": "Feature",
    "geometry": {
       "type": "Point",
       "coordinates":  [ 8.6821267,50.1109221 ]
    },
    "properties": {
    "City":"Frankfurt",
    "Country":"Germany",
    "CostofLivingIndex":76.25,
    "RentIndex":33.35,
    "CostofLivingPlusRentIndex":56.05,
    "GroceriesIndex":63.88,
    "RestaurantPriceIndex":51.84,
    "LocalPurchasingPowerIndex":138.31,
    "Year":2016
    }
  },
  {
    "type": "Feature",
    "geometry": {
       "type": "Point",
       "coordinates":  [ 9.9936819,53.5510846 ]
    },
    "properties": {
    "City":"Hamburg",
    "Country":"Germany",
    "CostofLivingIndex":75.3,
    "RentIndex":32.55,
    "CostofLivingPlusRentIndex":55.17,
    "GroceriesIndex":61.96,
    "RestaurantPriceIndex":84.83,
    "LocalPurchasingPowerIndex":108.85,
    "Year":2016
    }
  },
  {
    "type": "Feature",
    "geometry": {
       "type": "Point",
       "coordinates":  [ 8.6724335,49.3987524 ]
    },
    "properties": {
    "City":"Heidelberg",
    "Country":"Germany",
    "CostofLivingIndex":73.04,
    "RentIndex":30.9,
    "CostofLivingPlusRentIndex":53.2,
    "GroceriesIndex":61.24,
    "RestaurantPriceIndex":70.41,
    "LocalPurchasingPowerIndex":131.95,
    "Year":2016
    }
  },
  {
    "type": "Feature",
    "geometry": {
       "type": "Point",
       "coordinates":  [ 8.4036527,49.0068901 ]
    },
    "properties": {
    "City":"Karlsruhe",
    "Country":"Germany",
    "CostofLivingIndex":69.52,
    "RentIndex":31.22,
    "CostofLivingPlusRentIndex":51.49,
    "GroceriesIndex":53.36,
    "RestaurantPriceIndex":65.02,
    "LocalPurchasingPowerIndex":125.7,
    "Year":2016
    }
  },
  {
    "type": "Feature",
    "geometry": {
       "type": "Point",
       "coordinates":  [ 12.3730747,51.3396955 ]
    },
    "properties": {
    "City":"Leipzig",
    "Country":"Germany",
    "CostofLivingIndex":65.49,
    "RentIndex":18.67,
    "CostofLivingPlusRentIndex":43.44,
    "GroceriesIndex":50.9,
    "RestaurantPriceIndex":67.09,
    "LocalPurchasingPowerIndex":151.7,
    "Year":2016
    }
  },
  {
    "type": "Feature",
    "geometry": {
       "type": "Point",
       "coordinates":  [ 11.5819805,48.1351253 ]
    },
    "properties": {
    "City":"Munich",
    "Country":"Germany",
    "CostofLivingIndex":74.49,
    "RentIndex":40.83,
    "CostofLivingPlusRentIndex":58.64,
    "GroceriesIndex":59.13,
    "RestaurantPriceIndex":67.96,
    "LocalPurchasingPowerIndex":119.88,
    "Year":2016
    }
  },
  {
    "type": "Feature",
    "geometry": {
       "type": "Point",
       "coordinates":  [ 11.0766654,49.4521018 ]
    },
    "properties": {
    "City":"Nuremberg",
    "Country":"Germany",
    "CostofLivingIndex":66.71,
    "RentIndex":23.07,
    "CostofLivingPlusRentIndex":46.16,
    "GroceriesIndex":50.43,
    "RestaurantPriceIndex":61.98,
    "LocalPurchasingPowerIndex":91.45,
    "Year":2016
    }
  },
  {
    "type": "Feature",
    "geometry": {
       "type": "Point",
       "coordinates":  [ 9.1829321,48.7758459 ]
    },
    "properties": {
    "City":"Stuttgart",
    "Country":"Germany",
    "CostofLivingIndex":69.3,
    "RentIndex":28.19,
    "CostofLivingPlusRentIndex":49.94,
    "GroceriesIndex":53.52,
    "RestaurantPriceIndex":74.58,
    "LocalPurchasingPowerIndex":134.46,
    "Year":2016
    }
  },
  {
    "type": "Feature",
    "geometry": {
       "type": "Point",
       "coordinates":  [ -0.1869644,5.6037168 ]
    },
    "properties": {
    "City":"Accra",
    "Country":"Ghana",
    "CostofLivingIndex":64.16,
    "RentIndex":46.19,
    "CostofLivingPlusRentIndex":55.7,
    "GroceriesIndex":59.38,
    "RestaurantPriceIndex":69.84,
    "LocalPurchasingPowerIndex":151.41,
    "Year":2016
    }
  },
  {
    "type": "Feature",
    "geometry": {
       "type": "Point",
       "coordinates":  [ 23.7275388,37.9838096 ]
    },
    "properties": {
    "City":"Athens",
    "Country":"Greece",
    "CostofLivingIndex":58.75,
    "RentIndex":12.24,
    "CostofLivingPlusRentIndex":36.85,
    "GroceriesIndex":45.43,
    "RestaurantPriceIndex":67.57,
    "LocalPurchasingPowerIndex":142.13,
    "Year":2016
    }
  },
  {
    "type": "Feature",
    "geometry": {
       "type": "Point",
       "coordinates":  [ 21.734574,38.2466395 ]
    },
    "properties": {
    "City":"Patras",
    "Country":"Greece",
    "CostofLivingIndex":51.47,
    "RentIndex":9.37,
    "CostofLivingPlusRentIndex":31.64,
    "GroceriesIndex":38.95,
    "RestaurantPriceIndex":64.36,
    "LocalPurchasingPowerIndex":56.39,
    "Year":2016
    }
  },
  {
    "type": "Feature",
    "geometry": {
       "type": "Point",
       "coordinates":  [ 22.9444191,40.6400629 ]
    },
    "properties": {
    "City":"Thessaloniki",
    "Country":"Greece",
    "CostofLivingIndex":55.41,
    "RentIndex":10.29,
    "CostofLivingPlusRentIndex":34.17,
    "GroceriesIndex":42.73,
    "RestaurantPriceIndex":52.76,
    "LocalPurchasingPowerIndex":86.21,
    "Year":2016
    }
  },
  {
    "type": "Feature",
    "geometry": {
       "type": "Point",
       "coordinates":  [ -90.5068824,14.6349149 ]
    },
    "properties": {
    "City":"Guatemala City",
    "Country":"Guatemala",
    "CostofLivingIndex":43.98,
    "RentIndex":14.56,
    "CostofLivingPlusRentIndex":30.12,
    "GroceriesIndex":39.39,
    "RestaurantPriceIndex":55.92,
    "LocalPurchasingPowerIndex":81.62,
    "Year":2016
    }
  },
  {
    "type": "Feature",
    "geometry": {
       "type": "Point",
       "coordinates":  [ 114.1693611,22.3193039 ]
    },
    "properties": {
    "City":"Hong Kong",
    "Country":"Hong Kong",
    "CostofLivingIndex":77.69,
    "RentIndex":82.04,
    "CostofLivingPlusRentIndex":79.74,
    "GroceriesIndex":78.36,
    "RestaurantPriceIndex":57.83,
    "LocalPurchasingPowerIndex":61.9,
    "Year":2016
    }
  },
  {
    "type": "Feature",
    "geometry": {
       "type": "Point",
       "coordinates":  [ 19.040235,47.497912 ]
    },
    "properties": {
    "City":"Budapest",
    "Country":"Hungary",
    "CostofLivingIndex":44.66,
    "RentIndex":15,
    "CostofLivingPlusRentIndex":30.7,
    "GroceriesIndex":34.54,
    "RestaurantPriceIndex":37.1,
    "LocalPurchasingPowerIndex":52.41,
    "Year":2016
    }
  },
  {
    "type": "Feature",
    "geometry": {
       "type": "Point",
       "coordinates":  [ 21.6273124,47.5316049 ]
    },
    "properties": {
    "City":"Debrecen",
    "Country":"Hungary",
    "CostofLivingIndex":41.66,
    "RentIndex":9.82,
    "CostofLivingPlusRentIndex":26.66,
    "GroceriesIndex":34.79,
    "RestaurantPriceIndex":54.34,
    "LocalPurchasingPowerIndex":91.98,
    "Year":2016
    }
  },
  {
    "type": "Feature",
    "geometry": {
       "type": "Point",
       "coordinates":  [ -21.9426354,64.146582 ]
    },
    "properties": {
    "City":"Reykjavik",
    "Country":"Iceland",
    "CostofLivingIndex":104.95,
    "RentIndex":47.4,
    "CostofLivingPlusRentIndex":77.85,
    "GroceriesIndex":97.16,
    "RestaurantPriceIndex":34.59,
    "LocalPurchasingPowerIndex":54.73,
    "Year":2016
    }
  },
  {
    "type": "Feature",
    "geometry": {
       "type": "Point",
       "coordinates":  [ 72.5713621,23.022505 ]
    },
    "properties": {
    "City":"Ahmedabad",
    "Country":"India",
    "CostofLivingIndex":23.99,
    "RentIndex":5.32,
    "CostofLivingPlusRentIndex":15.2,
    "GroceriesIndex":24.59,
    "RestaurantPriceIndex":30.25,
    "LocalPurchasingPowerIndex":43.72,
    "Year":2016
    }
  },
  {
    "type": "Feature",
    "geometry": {
       "type": "Point",
       "coordinates":  [ 77.5945627,12.9715987 ]
    },
    "properties": {
    "City":"Bangalore",
    "Country":"India",
    "CostofLivingIndex":26.23,
    "RentIndex":8.67,
    "CostofLivingPlusRentIndex":17.96,
    "GroceriesIndex":26.86,
    "RestaurantPriceIndex":111.95,
    "LocalPurchasingPowerIndex":84.48,
    "Year":2016
    }
  },
  {
    "type": "Feature",
    "geometry": {
       "type": "Point",
       "coordinates":  [ 85.8245398,20.2960587 ]
    },
    "properties": {
    "City":"Bhubaneswar",
    "Country":"India",
    "CostofLivingIndex":22.44,
    "RentIndex":4.15,
    "CostofLivingPlusRentIndex":13.83,
    "GroceriesIndex":23.27,
    "RestaurantPriceIndex":15.88,
    "LocalPurchasingPowerIndex":72.71,
    "Year":2016
    }
  },
  {
    "type": "Feature",
    "geometry": {
       "type": "Point",
       "coordinates":  [ 76.7794179,30.7333148 ]
    },
    "properties": {
    "City":"Chandigarh",
    "Country":"India",
    "CostofLivingIndex":25.64,
    "RentIndex":6.46,
    "CostofLivingPlusRentIndex":16.61,
    "GroceriesIndex":25.49,
    "RestaurantPriceIndex":16.46,
    "LocalPurchasingPowerIndex":103.17,
    "Year":2016
    }
  },
  {
    "type": "Feature",
    "geometry": {
       "type": "Point",
       "coordinates":  [ 80.2707184,13.0826802 ]
    },
    "properties": {
    "City":"Chennai",
    "Country":"India",
    "CostofLivingIndex":25.77,
    "RentIndex":6.98,
    "CostofLivingPlusRentIndex":16.92,
    "GroceriesIndex":27.37,
    "RestaurantPriceIndex":12.9,
    "LocalPurchasingPowerIndex":65.31,
    "Year":2016
    }
  },
  {
    "type": "Feature",
    "geometry": {
       "type": "Point",
       "coordinates":  [ 76.9558321,11.0168445 ]
    },
    "properties": {
    "City":"Coimbatore",
    "Country":"India",
    "CostofLivingIndex":23.09,
    "RentIndex":5.43,
    "CostofLivingPlusRentIndex":14.77,
    "GroceriesIndex":23.32,
    "RestaurantPriceIndex":17.68,
    "LocalPurchasingPowerIndex":64.32,
    "Year":2016
    }
  },
  {
    "type": "Feature",
    "geometry": {
       "type": "Point",
       "coordinates":  [ 77.1024902,28.7040592 ]
    },
    "properties": {
    "City":"Delhi",
    "Country":"India",
    "CostofLivingIndex":27.97,
    "RentIndex":9.78,
    "CostofLivingPlusRentIndex":19.4,
    "GroceriesIndex":25.61,
    "RestaurantPriceIndex":15.58,
    "LocalPurchasingPowerIndex":83.75,
    "Year":2016
    }
  },
  {
    "type": "Feature",
    "geometry": {
       "type": "Point",
       "coordinates":  [ 74.123996,15.2993265 ]
    },
    "properties": {
    "City":"Goa",
    "Country":"India",
    "CostofLivingIndex":25.44,
    "RentIndex":7.8,
    "CostofLivingPlusRentIndex":17.13,
    "GroceriesIndex":24.28,
    "RestaurantPriceIndex":16.35,
    "LocalPurchasingPowerIndex":47.37,
    "Year":2016
    }
  },
  {
    "type": "Feature",
    "geometry": {
       "type": "Point",
       "coordinates":  [ 77.0266383,28.4594965 ]
    },
    "properties": {
    "City":"Gurgaon",
    "Country":"India",
    "CostofLivingIndex":30.76,
    "RentIndex":9.78,
    "CostofLivingPlusRentIndex":20.88,
    "GroceriesIndex":29.14,
    "RestaurantPriceIndex":21.82,
    "LocalPurchasingPowerIndex":81.22,
    "Year":2016
    }
  },
  {
    "type": "Feature",
    "geometry": {
       "type": "Point",
       "coordinates":  [ 78.486671,17.385044 ]
    },
    "properties": {
    "City":"Hyderabad",
    "Country":"India",
    "CostofLivingIndex":23.48,
    "RentIndex":5.85,
    "CostofLivingPlusRentIndex":15.18,
    "GroceriesIndex":24.37,
    "RestaurantPriceIndex":20.63,
    "LocalPurchasingPowerIndex":63.66,
    "Year":2016
    }
  },
  {
    "type": "Feature",
    "geometry": {
       "type": "Point",
       "coordinates":  [ 75.8577258,22.7195687 ]
    },
    "properties": {
    "City":"Indore",
    "Country":"India",
    "CostofLivingIndex":23.74,
    "RentIndex":4.12,
    "CostofLivingPlusRentIndex":14.5,
    "GroceriesIndex":22.9,
    "RestaurantPriceIndex":26.61,
    "LocalPurchasingPowerIndex":106.17,
    "Year":2016
    }
  },
  {
    "type": "Feature",
    "geometry": {
       "type": "Point",
       "coordinates":  [ 75.7872709,26.9124336 ]
    },
    "properties": {
    "City":"Jaipur",
    "Country":"India",
    "CostofLivingIndex":24.81,
    "RentIndex":4.2,
    "CostofLivingPlusRentIndex":15.11,
    "GroceriesIndex":24.46,
    "RestaurantPriceIndex":14.33,
    "LocalPurchasingPowerIndex":85.16,
    "Year":2016
    }
  },
  {
    "type": "Feature",
    "geometry": {
       "type": "Point",
       "coordinates":  [ 76.2673041,9.9312328 ]
    },
    "properties": {
    "City":"Kochi",
    "Country":"India",
    "CostofLivingIndex":22.82,
    "RentIndex":5.09,
    "CostofLivingPlusRentIndex":14.47,
    "GroceriesIndex":24.31,
    "RestaurantPriceIndex":16.29,
    "LocalPurchasingPowerIndex":46.74,
    "Year":2016
    }
  },
  {
    "type": "Feature",
    "geometry": {
       "type": "Point",
       "coordinates":  [ 88.363895,22.572646 ]
    },
    "properties": {
    "City":"Kolkata",
    "Country":"India",
    "CostofLivingIndex":25.45,
    "RentIndex":6.52,
    "CostofLivingPlusRentIndex":16.53,
    "GroceriesIndex":25.24,
    "RestaurantPriceIndex":14.66,
    "LocalPurchasingPowerIndex":81.83,
    "Year":2016
    }
  },
  {
    "type": "Feature",
    "geometry": {
       "type": "Point",
       "coordinates":  [ 80.946166,26.8466937 ]
    },
    "properties": {
    "City":"Lucknow (Lakhnau)",
    "Country":"India",
    "CostofLivingIndex":26.25,
    "RentIndex":4.95,
    "CostofLivingPlusRentIndex":16.22,
    "GroceriesIndex":26.66,
    "RestaurantPriceIndex":12.76,
    "LocalPurchasingPowerIndex":82.94,
    "Year":2016
    }
  },
  {
    "type": "Feature",
    "geometry": {
       "type": "Point",
       "coordinates":  [ 74.8559568,12.9141417 ]
    },
    "properties": {
    "City":"Mangalore",
    "Country":"India",
    "CostofLivingIndex":21.88,
    "RentIndex":5.15,
    "CostofLivingPlusRentIndex":14,
    "GroceriesIndex":21.21,
    "RestaurantPriceIndex":15.74,
    "LocalPurchasingPowerIndex":58.91,
    "Year":2016
    }
  },
  {
    "type": "Feature",
    "geometry": {
       "type": "Point",
       "coordinates":  [ 72.8776559,19.0759837 ]
    },
    "properties": {
    "City":"Mumbai",
    "Country":"India",
    "CostofLivingIndex":28.82,
    "RentIndex":20.86,
    "CostofLivingPlusRentIndex":25.07,
    "GroceriesIndex":29.16,
    "RestaurantPriceIndex":20.43,
    "LocalPurchasingPowerIndex":65.71,
    "Year":2016
    }
  },
  {
    "type": "Feature",
    "geometry": {
       "type": "Point",
       "coordinates":  [ 76.6393805,12.2958104 ]
    },
    "properties": {
    "City":"Mysore",
    "Country":"India",
    "CostofLivingIndex":25.37,
    "RentIndex":4.43,
    "CostofLivingPlusRentIndex":15.51,
    "GroceriesIndex":30.65,
    "RestaurantPriceIndex":12.71,
    "LocalPurchasingPowerIndex":114.63,
    "Year":2016
    }
  },
  {
    "type": "Feature",
    "geometry": {
       "type": "Point",
       "coordinates":  [ 79.0881546,21.1458004 ]
    },
    "properties": {
    "City":"Nagpur",
    "Country":"India",
    "CostofLivingIndex":23.09,
    "RentIndex":4.22,
    "CostofLivingPlusRentIndex":14.2,
    "GroceriesIndex":24.32,
    "RestaurantPriceIndex":21.56,
    "LocalPurchasingPowerIndex":69.56,
    "Year":2016
    }
  },
  {
    "type": "Feature",
    "geometry": {
       "type": "Point",
       "coordinates":  [ 73.0296625,19.0330488 ]
    },
    "properties": {
    "City":"Navi Mumbai",
    "Country":"India",
    "CostofLivingIndex":25.7,
    "RentIndex":9.39,
    "CostofLivingPlusRentIndex":18.02,
    "GroceriesIndex":25.27,
    "RestaurantPriceIndex":11.84,
    "LocalPurchasingPowerIndex":39.28,
    "Year":2016
    }
  },
  {
    "type": "Feature",
    "geometry": {
       "type": "Point",
       "coordinates":  [ 77.3910265,28.5355161 ]
    },
    "properties": {
    "City":"Noida",
    "Country":"India",
    "CostofLivingIndex":27.14,
    "RentIndex":6.67,
    "CostofLivingPlusRentIndex":17.5,
    "GroceriesIndex":27.25,
    "RestaurantPriceIndex":16.84,
    "LocalPurchasingPowerIndex":69.95,
    "Year":2016
    }
  },
  {
    "type": "Feature",
    "geometry": {
       "type": "Point",
       "coordinates":  [ 73.8567437,18.5204303 ]
    },
    "properties": {
    "City":"Pune",
    "Country":"India",
    "CostofLivingIndex":25.58,
    "RentIndex":7.44,
    "CostofLivingPlusRentIndex":17.04,
    "GroceriesIndex":26.15,
    "RestaurantPriceIndex":20.83,
    "LocalPurchasingPowerIndex":92.33,
    "Year":2016
    }
  },
  {
    "type": "Feature",
    "geometry": {
       "type": "Point",
       "coordinates":  [ 72.8310607,21.1702401 ]
    },
    "properties": {
    "City":"Surat",
    "Country":"India",
    "CostofLivingIndex":25.17,
    "RentIndex":4.78,
    "CostofLivingPlusRentIndex":15.57,
    "GroceriesIndex":24.46,
    "RestaurantPriceIndex":19.74,
    "LocalPurchasingPowerIndex":100.67,
    "Year":2016
    }
  },
  {
    "type": "Feature",
    "geometry": {
       "type": "Point",
       "coordinates":  [ 72.9780897,19.2183307 ]
    },
    "properties": {
    "City":"Thane",
    "Country":"India",
    "CostofLivingIndex":27.73,
    "RentIndex":8.56,
    "CostofLivingPlusRentIndex":18.7,
    "GroceriesIndex":28.16,
    "RestaurantPriceIndex":17.7,
    "LocalPurchasingPowerIndex":116.27,
    "Year":2016
    }
  },
  {
    "type": "Feature",
    "geometry": {
       "type": "Point",
       "coordinates":  [ 76.9366376,8.5241391 ]
    },
    "properties": {
    "City":"Thiruvananthapuram",
    "Country":"India",
    "CostofLivingIndex":19.55,
    "RentIndex":4.57,
    "CostofLivingPlusRentIndex":12.5,
    "GroceriesIndex":19.83,
    "RestaurantPriceIndex":20.27,
    "LocalPurchasingPowerIndex":58.87,
    "Year":2016
    }
  },
  {
    "type": "Feature",
    "geometry": {
       "type": "Point",
       "coordinates":  [ 73.1812187,22.3071588 ]
    },
    "properties": {
    "City":"Vadodara",
    "Country":"India",
    "CostofLivingIndex":26.1,
    "RentIndex":4.3,
    "CostofLivingPlusRentIndex":15.83,
    "GroceriesIndex":27.59,
    "RestaurantPriceIndex":18.03,
    "LocalPurchasingPowerIndex":60.4,
    "Year":2016
    }
  },
  {
    "type": "Feature",
    "geometry": {
       "type": "Point",
       "coordinates":  [ 83.2184815,17.6868159 ]
    },
    "properties": {
    "City":"Visakhapatnam",
    "Country":"India",
    "CostofLivingIndex":24.11,
    "RentIndex":5.34,
    "CostofLivingPlusRentIndex":15.27,
    "GroceriesIndex":25.43,
    "RestaurantPriceIndex":11.39,
    "LocalPurchasingPowerIndex":81.6,
    "Year":2016
    }
  },
  {
    "type": "Feature",
    "geometry": {
       "type": "Point",
       "coordinates":  [ 115.0919509,-8.3405389 ]
    },
    "properties": {
    "City":"Bali",
    "Country":"Indonesia",
    "CostofLivingIndex":39.7,
    "RentIndex":13.57,
    "CostofLivingPlusRentIndex":27.4,
    "GroceriesIndex":42.44,
    "RestaurantPriceIndex":18.39,
    "LocalPurchasingPowerIndex":76.13,
    "Year":2016
    }
  },
  {
    "type": "Feature",
    "geometry": {
       "type": "Point",
       "coordinates":  [ 107.6191228,-6.9174639 ]
    },
    "properties": {
    "City":"Bandung",
    "Country":"Indonesia",
    "CostofLivingIndex":35.51,
    "RentIndex":7.67,
    "CostofLivingPlusRentIndex":22.4,
    "GroceriesIndex":41.88,
    "RestaurantPriceIndex":14.03,
    "LocalPurchasingPowerIndex":58.98,
    "Year":2016
    }
  },
  {
    "type": "Feature",
    "geometry": {
       "type": "Point",
       "coordinates":  [ 106.845599,-6.2087634 ]
    },
    "properties": {
    "City":"Jakarta",
    "Country":"Indonesia",
    "CostofLivingIndex":45.24,
    "RentIndex":24.89,
    "CostofLivingPlusRentIndex":35.66,
    "GroceriesIndex":48.74,
    "RestaurantPriceIndex":22.62,
    "LocalPurchasingPowerIndex":26.44,
    "Year":2016
    }
  },
  {
    "type": "Feature",
    "geometry": {
       "type": "Point",
       "coordinates":  [ 112.7520883,-7.2574719 ]
    },
    "properties": {
    "City":"Surabaya",
    "Country":"Indonesia",
    "CostofLivingIndex":40.92,
    "RentIndex":11.78,
    "CostofLivingPlusRentIndex":27.2,
    "GroceriesIndex":42.55,
    "RestaurantPriceIndex":15.87,
    "LocalPurchasingPowerIndex":29.78,
    "Year":2016
    }
  },
  {
    "type": "Feature",
    "geometry": {
       "type": "Point",
       "coordinates":  [ 110.3694896,-7.7955798 ]
    },
    "properties": {
    "City":"Yogyakarta",
    "Country":"Indonesia",
    "CostofLivingIndex":37.83,
    "RentIndex":7.64,
    "CostofLivingPlusRentIndex":23.61,
    "GroceriesIndex":36.93,
    "RestaurantPriceIndex":25.44,
    "LocalPurchasingPowerIndex":44.09,
    "Year":2016
    }
  },
  {
    "type": "Feature",
    "geometry": {
       "type": "Point",
       "coordinates":  [ 51.3889736,35.6891975 ]
    },
    "properties": {
    "City":"Tehran",
    "Country":"Iran",
    "CostofLivingIndex":40.27,
    "RentIndex":22.04,
    "CostofLivingPlusRentIndex":31.69,
    "GroceriesIndex":35.34,
    "RestaurantPriceIndex":22.53,
    "LocalPurchasingPowerIndex":29.07,
    "Year":2016
    }
  },
  {
    "type": "Feature",
    "geometry": {
       "type": "Point",
       "coordinates":  [ 44.3660671,33.315241 ]
    },
    "properties": {
    "City":"Baghdad",
    "Country":"Iraq",
    "CostofLivingIndex":47.87,
    "RentIndex":17.03,
    "CostofLivingPlusRentIndex":33.35,
    "GroceriesIndex":36.71,
    "RestaurantPriceIndex":14.48,
    "LocalPurchasingPowerIndex":18.06,
    "Year":2016
    }
  },
  {
    "type": "Feature",
    "geometry": {
       "type": "Point",
       "coordinates":  [ 44.0088697,36.2062933 ]
    },
    "properties": {
    "City":"Irbil",
    "Country":"Iraq",
    "CostofLivingIndex":57.3,
    "RentIndex":20.32,
    "CostofLivingPlusRentIndex":39.89,
    "GroceriesIndex":41.98,
    "RestaurantPriceIndex":35.31,
    "LocalPurchasingPowerIndex":45.95,
    "Year":2016
    }
  },
  {
    "type": "Feature",
    "geometry": {
       "type": "Point",
       "coordinates":  [ -8.4756035,51.8985143 ]
    },
    "properties": {
    "City":"Cork",
    "Country":"Ireland",
    "CostofLivingIndex":75.88,
    "RentIndex":34.98,
    "CostofLivingPlusRentIndex":56.62,
    "GroceriesIndex":64.79,
    "RestaurantPriceIndex":45.15,
    "LocalPurchasingPowerIndex":63.93,
    "Year":2016
    }
  },
  {
    "type": "Feature",
    "geometry": {
       "type": "Point",
       "coordinates":  [ -6.2603097,53.3498053 ]
    },
    "properties": {
    "City":"Dublin",
    "Country":"Ireland",
    "CostofLivingIndex":82.25,
    "RentIndex":50.65,
    "CostofLivingPlusRentIndex":67.37,
    "GroceriesIndex":66.17,
    "RestaurantPriceIndex":59.79,
    "LocalPurchasingPowerIndex":45.09,
    "Year":2016
    }
  },
  {
    "type": "Feature",
    "geometry": {
       "type": "Point",
       "coordinates":  [ -9.0567905,53.270668 ]
    },
    "properties": {
    "City":"Galway",
    "Country":"Ireland",
    "CostofLivingIndex":72.5,
    "RentIndex":30.74,
    "CostofLivingPlusRentIndex":52.84,
    "GroceriesIndex":58.31,
    "RestaurantPriceIndex":79.56,
    "LocalPurchasingPowerIndex":135,
    "Year":2016
    }
  },
  {
    "type": "Feature",
    "geometry": {
       "type": "Point",
       "coordinates":  [ -8.6267343,52.6638367 ]
    },
    "properties": {
    "City":"Limerick",
    "Country":"Ireland",
    "CostofLivingIndex":88.14,
    "RentIndex":22.25,
    "CostofLivingPlusRentIndex":57.11,
    "GroceriesIndex":83.24,
    "RestaurantPriceIndex":87.55,
    "LocalPurchasingPowerIndex":106.56,
    "Year":2016
    }
  },
  {
    "type": "Feature",
    "geometry": {
       "type": "Point",
       "coordinates":  [ 34.989571,32.7940463 ]
    },
    "properties": {
    "City":"Haifa",
    "Country":"Israel",
    "CostofLivingIndex":74.22,
    "RentIndex":21.13,
    "CostofLivingPlusRentIndex":49.22,
    "GroceriesIndex":59.53,
    "RestaurantPriceIndex":77.72,
    "LocalPurchasingPowerIndex":104.15,
    "Year":2016
    }
  },
  {
    "type": "Feature",
    "geometry": {
       "type": "Point",
       "coordinates":  [ 35.21371,31.768319 ]
    },
    "properties": {
    "City":"Jerusalem",
    "Country":"Israel",
    "CostofLivingIndex":76.77,
    "RentIndex":30.54,
    "CostofLivingPlusRentIndex":55,
    "GroceriesIndex":61.57,
    "RestaurantPriceIndex":77.41,
    "LocalPurchasingPowerIndex":84.54,
    "Year":2016
    }
  },
  {
    "type": "Feature",
    "geometry": {
       "type": "Point",
       "coordinates":  [ 34.824785,32.068424 ]
    },
    "properties": {
    "City":"Ramat Gan",
    "Country":"Israel",
    "CostofLivingIndex":81.18,
    "RentIndex":30.86,
    "CostofLivingPlusRentIndex":57.49,
    "GroceriesIndex":67.72,
    "RestaurantPriceIndex":82.73,
    "LocalPurchasingPowerIndex":103.11,
    "Year":2016
    }
  },
  {
    "type": "Feature",
    "geometry": {
       "type": "Point",
       "coordinates":  [ 34.7817676,32.0852999 ]
    },
    "properties": {
    "City":"Tel AvivNAyafo",
    "Country":"Israel",
    "CostofLivingIndex":81.12,
    "RentIndex":39.8,
    "CostofLivingPlusRentIndex":61.66,
    "GroceriesIndex":66.51,
    "RestaurantPriceIndex":82.99,
    "LocalPurchasingPowerIndex":95.44,
    "Year":2016
    }
  },
  {
    "type": "Feature",
    "geometry": {
       "type": "Point",
       "coordinates":  [ 9.6772698,45.6982642 ]
    },
    "properties": {
    "City":"Bergamo",
    "Country":"Italy",
    "CostofLivingIndex":73.26,
    "RentIndex":20.52,
    "CostofLivingPlusRentIndex":48.43,
    "GroceriesIndex":58,
    "RestaurantPriceIndex":87.36,
    "LocalPurchasingPowerIndex":91.46,
    "Year":2016
    }
  },
  {
    "type": "Feature",
    "geometry": {
       "type": "Point",
       "coordinates":  [ 11.2558136,43.7695604 ]
    },
    "properties": {
    "City":"Florence",
    "Country":"Italy",
    "CostofLivingIndex":73.74,
    "RentIndex":28.51,
    "CostofLivingPlusRentIndex":52.44,
    "GroceriesIndex":60.99,
    "RestaurantPriceIndex":73.98,
    "LocalPurchasingPowerIndex":98.03,
    "Year":2016
    }
  },
  {
    "type": "Feature",
    "geometry": {
       "type": "Point",
       "coordinates":  [ 8.946256,44.4056499 ]
    },
    "properties": {
    "City":"Genoa",
    "Country":"Italy",
    "CostofLivingIndex":75.35,
    "RentIndex":21.5,
    "CostofLivingPlusRentIndex":49.99,
    "GroceriesIndex":67.4,
    "RestaurantPriceIndex":66.43,
    "LocalPurchasingPowerIndex":102.19,
    "Year":2016
    }
  },
  {
    "type": "Feature",
    "geometry": {
       "type": "Point",
       "coordinates":  [ 9.189982,45.4642035 ]
    },
    "properties": {
    "City":"Milan",
    "Country":"Italy",
    "CostofLivingIndex":76.2,
    "RentIndex":39.25,
    "CostofLivingPlusRentIndex":58.8,
    "GroceriesIndex":65.34,
    "RestaurantPriceIndex":77.62,
    "LocalPurchasingPowerIndex":72.14,
    "Year":2016
    }
  },
  {
    "type": "Feature",
    "geometry": {
       "type": "Point",
       "coordinates":  [ 14.26812,40.8517983 ]
    },
    "properties": {
    "City":"Naples",
    "Country":"Italy",
    "CostofLivingIndex":67.86,
    "RentIndex":22.27,
    "CostofLivingPlusRentIndex":46.39,
    "GroceriesIndex":63.45,
    "RestaurantPriceIndex":77.26,
    "LocalPurchasingPowerIndex":79.48,
    "Year":2016
    }
  },
  {
    "type": "Feature",
    "geometry": {
       "type": "Point",
       "coordinates":  [ 11.8767611,45.4064349 ]
    },
    "properties": {
    "City":"Padova",
    "Country":"Italy",
    "CostofLivingIndex":72.54,
    "RentIndex":22.24,
    "CostofLivingPlusRentIndex":48.86,
    "GroceriesIndex":59.31,
    "RestaurantPriceIndex":85.11,
    "LocalPurchasingPowerIndex":86.71,
    "Year":2016
    }
  },
  {
    "type": "Feature",
    "geometry": {
       "type": "Point",
       "coordinates":  [ 10.3279036,44.801485 ]
    },
    "properties": {
    "City":"Parma",
    "Country":"Italy",
    "CostofLivingIndex":72.7,
    "RentIndex":24.11,
    "CostofLivingPlusRentIndex":49.82,
    "GroceriesIndex":59.17,
    "RestaurantPriceIndex":62.34,
    "LocalPurchasingPowerIndex":50.74,
    "Year":2016
    }
  },
  {
    "type": "Feature",
    "geometry": {
       "type": "Point",
       "coordinates":  [ 12.4963655,41.9027835 ]
    },
    "properties": {
    "City":"Rome",
    "Country":"Italy",
    "CostofLivingIndex":71.79,
    "RentIndex":38.7,
    "CostofLivingPlusRentIndex":56.21,
    "GroceriesIndex":60.38,
    "RestaurantPriceIndex":74.26,
    "LocalPurchasingPowerIndex":73.55,
    "Year":2016
    }
  },
  {
    "type": "Feature",
    "geometry": {
       "type": "Point",
       "coordinates":  [ 13.7768182,45.6495264 ]
    },
    "properties": {
    "City":"Trieste",
    "Country":"Italy",
    "CostofLivingIndex":68.7,
    "RentIndex":20.97,
    "CostofLivingPlusRentIndex":46.23,
    "GroceriesIndex":59.26,
    "RestaurantPriceIndex":84.74,
    "LocalPurchasingPowerIndex":88.43,
    "Year":2016
    }
  },
  {
    "type": "Feature",
    "geometry": {
       "type": "Point",
       "coordinates":  [ 7.686864,45.0703393 ]
    },
    "properties": {
    "City":"Turin",
    "Country":"Italy",
    "CostofLivingIndex":69.16,
    "RentIndex":21.03,
    "CostofLivingPlusRentIndex":46.5,
    "GroceriesIndex":59.79,
    "RestaurantPriceIndex":77,
    "LocalPurchasingPowerIndex":82.5,
    "Year":2016
    }
  },
  {
    "type": "Feature",
    "geometry": {
       "type": "Point",
       "coordinates":  [ 135.5022535,34.6937249 ]
    },
    "properties": {
    "City":"Osaka",
    "Country":"Japan",
    "CostofLivingIndex":78.5,
    "RentIndex":23.56,
    "CostofLivingPlusRentIndex":52.63,
    "GroceriesIndex":81.27,
    "RestaurantPriceIndex":71.32,
    "LocalPurchasingPowerIndex":90.07,
    "Year":2016
    }
  },
  {
    "type": "Feature",
    "geometry": {
       "type": "Point",
       "coordinates":  [ 139.6503106,35.6761919 ]
    },
    "properties": {
    "City":"Tokyo",
    "Country":"Japan",
    "CostofLivingIndex":89.74,
    "RentIndex":43.44,
    "CostofLivingPlusRentIndex":67.94,
    "GroceriesIndex":94.03,
    "RestaurantPriceIndex":38.32,
    "LocalPurchasingPowerIndex":36.87,
    "Year":2016
    }
  },
  {
    "type": "Feature",
    "geometry": {
       "type": "Point",
       "coordinates":  [ 35.9283716,31.9453666 ]
    },
    "properties": {
    "City":"Amman",
    "Country":"Jordan",
    "CostofLivingIndex":58.61,
    "RentIndex":13.71,
    "CostofLivingPlusRentIndex":37.47,
    "GroceriesIndex":48.76,
    "RestaurantPriceIndex":42.93,
    "LocalPurchasingPowerIndex":105.08,
    "Year":2016
    }
  },
  {
    "type": "Feature",
    "geometry": {
       "type": "Point",
       "coordinates":  [ 76.8512485,43.2220146 ]
    },
    "properties": {
    "City":"Almaty",
    "Country":"Kazakhstan",
    "CostofLivingIndex":31.03,
    "RentIndex":12.24,
    "CostofLivingPlusRentIndex":22.18,
    "GroceriesIndex":25.15,
    "RestaurantPriceIndex":55.66,
    "LocalPurchasingPowerIndex":98.09,
    "Year":2016
    }
  },
  {
    "type": "Feature",
    "geometry": {
       "type": "Point",
       "coordinates":  [ 71.4703558,51.1605227 ]
    },
    "properties": {
    "City":"Astana",
    "Country":"Kazakhstan",
    "CostofLivingIndex":31.02,
    "RentIndex":16.27,
    "CostofLivingPlusRentIndex":24.07,
    "GroceriesIndex":23.47,
    "RestaurantPriceIndex":57.05,
    "LocalPurchasingPowerIndex":46.07,
    "Year":2016
    }
  },
  {
    "type": "Feature",
    "geometry": {
       "type": "Point",
       "coordinates":  [ 36.8219462,-1.2920659 ]
    },
    "properties": {
    "City":"Nairobi",
    "Country":"Kenya",
    "CostofLivingIndex":42.39,
    "RentIndex":16.82,
    "CostofLivingPlusRentIndex":30.35,
    "GroceriesIndex":37.45,
    "RestaurantPriceIndex":32.52,
    "LocalPurchasingPowerIndex":50.24,
    "Year":2016
    }
  },
  {
    "type": "Feature",
    "geometry": {
       "type": "Point",
       "coordinates":  [ 24.1051865,56.9496487 ]
    },
    "properties": {
    "City":"Riga",
    "Country":"Latvia",
    "CostofLivingIndex":49.57,
    "RentIndex":13.26,
    "CostofLivingPlusRentIndex":32.47,
    "GroceriesIndex":36.19,
    "RestaurantPriceIndex":32.11,
    "LocalPurchasingPowerIndex":45.96,
    "Year":2016
    }
  },
  {
    "type": "Feature",
    "geometry": {
       "type": "Point",
       "coordinates":  [ 35.5017767,33.8937913 ]
    },
    "properties": {
    "City":"Beirut",
    "Country":"Lebanon",
    "CostofLivingIndex":62.26,
    "RentIndex":40.23,
    "CostofLivingPlusRentIndex":51.88,
    "GroceriesIndex":45.48,
    "RestaurantPriceIndex":33.59,
    "LocalPurchasingPowerIndex":29.12,
    "Year":2016
    }
  },
  {
    "type": "Feature",
    "geometry": {
       "type": "Point",
       "coordinates":  [ 23.9035965,54.8985207 ]
    },
    "properties": {
    "City":"Kaunas",
    "Country":"Lithuania",
    "CostofLivingIndex":46.3,
    "RentIndex":10.24,
    "CostofLivingPlusRentIndex":29.32,
    "GroceriesIndex":34.83,
    "RestaurantPriceIndex":45.09,
    "LocalPurchasingPowerIndex":56.92,
    "Year":2016
    }
  },
  {
    "type": "Feature",
    "geometry": {
       "type": "Point",
       "coordinates":  [ 25.2796514,54.6871555 ]
    },
    "properties": {
    "City":"Vilnius",
    "Country":"Lithuania",
    "CostofLivingIndex":48.62,
    "RentIndex":15.39,
    "CostofLivingPlusRentIndex":32.98,
    "GroceriesIndex":37.79,
    "RestaurantPriceIndex":61.06,
    "LocalPurchasingPowerIndex":60.16,
    "Year":2016
    }
  },
  {
    "type": "Feature",
    "geometry": {
       "type": "Point",
       "coordinates":  [ 6.1319346,49.611621 ]
    },
    "properties": {
    "City":"Luxembourg",
    "Country":"Luxembourg",
    "CostofLivingIndex":80.99,
    "RentIndex":51.47,
    "CostofLivingPlusRentIndex":67.09,
    "GroceriesIndex":61.68,
    "RestaurantPriceIndex":40.08,
    "LocalPurchasingPowerIndex":53.56,
    "Year":2016
    }
  },
  {
    "type": "Feature",
    "geometry": {
       "type": "Point",
       "coordinates":  [ 21.431647,41.9960421 ]
    },
    "properties": {
    "City":"Skopje",
    "Country":"Macedonia",
    "CostofLivingIndex":35.72,
    "RentIndex":8.69,
    "CostofLivingPlusRentIndex":22.99,
    "GroceriesIndex":28.3,
    "RestaurantPriceIndex":42.05,
    "LocalPurchasingPowerIndex":57.9,
    "Year":2016
    }
  },
  {
    "type": "Feature",
    "geometry": {
       "type": "Point",
       "coordinates":  [ 103.7413591,1.492659 ]
    },
    "properties": {
    "City":"Johor Bahru",
    "Country":"Malaysia",
    "CostofLivingIndex":42.39,
    "RentIndex":11.98,
    "CostofLivingPlusRentIndex":28.07,
    "GroceriesIndex":48.59,
    "RestaurantPriceIndex":100.81,
    "LocalPurchasingPowerIndex":148.47,
    "Year":2016
    }
  },
  {
    "type": "Feature",
    "geometry": {
       "type": "Point",
       "coordinates":  [ 116.0734568,5.980408 ]
    },
    "properties": {
    "City":"Kota Kinabalu",
    "Country":"Malaysia",
    "CostofLivingIndex":49.08,
    "RentIndex":8.46,
    "CostofLivingPlusRentIndex":29.96,
    "GroceriesIndex":52.52,
    "RestaurantPriceIndex":27.61,
    "LocalPurchasingPowerIndex":41.69,
    "Year":2016
    }
  },
  {
    "type": "Feature",
    "geometry": {
       "type": "Point",
       "coordinates":  [ 101.686855,3.139003 ]
    },
    "properties": {
    "City":"Kuala Lumpur",
    "Country":"Malaysia",
    "CostofLivingIndex":44.07,
    "RentIndex":18.08,
    "CostofLivingPlusRentIndex":31.84,
    "GroceriesIndex":45.41,
    "RestaurantPriceIndex":20.38,
    "LocalPurchasingPowerIndex":63.32,
    "Year":2016
    }
  },
  {
    "type": "Feature",
    "geometry": {
       "type": "Point",
       "coordinates":  [ 100.3326786,5.4163935 ]
    },
    "properties": {
    "City":"Penang",
    "Country":"Malaysia",
    "CostofLivingIndex":45.86,
    "RentIndex":9.53,
    "CostofLivingPlusRentIndex":28.75,
    "GroceriesIndex":50.78,
    "RestaurantPriceIndex":24.77,
    "LocalPurchasingPowerIndex":59.29,
    "Year":2016
    }
  },
  {
    "type": "Feature",
    "geometry": {
       "type": "Point",
       "coordinates":  [ 101.5183469,3.0738379 ]
    },
    "properties": {
    "City":"Selangor",
    "Country":"Malaysia",
    "CostofLivingIndex":43.91,
    "RentIndex":11.88,
    "CostofLivingPlusRentIndex":28.83,
    "GroceriesIndex":49.84,
    "RestaurantPriceIndex":25.25,
    "LocalPurchasingPowerIndex":90.73,
    "Year":2016
    }
  },
  {
    "type": "Feature",
    "geometry": {
       "type": "Point",
       "coordinates":  [ 14.375416,35.937496 ]
    },
    "properties": {
    "City":"Male",
    "Country":"Maldives",
    "CostofLivingIndex":60.28,
    "RentIndex":32.02,
    "CostofLivingPlusRentIndex":46.97,
    "GroceriesIndex":58.34,
    "RestaurantPriceIndex":23.44,
    "LocalPurchasingPowerIndex":77.63,
    "Year":2016
    }
  },
  {
    "type": "Feature",
    "geometry": {
       "type": "Point",
       "coordinates":  [ 14.502904,35.9110081 ]
    },
    "properties": {
    "City":"Sliema",
    "Country":"Malta",
    "CostofLivingIndex":68.43,
    "RentIndex":28.99,
    "CostofLivingPlusRentIndex":49.86,
    "GroceriesIndex":58.42,
    "RestaurantPriceIndex":19.28,
    "LocalPurchasingPowerIndex":102.6,
    "Year":2016
    }
  },
  {
    "type": "Feature",
    "geometry": {
       "type": "Point",
       "coordinates":  [ -86.8515279,21.161908 ]
    },
    "properties": {
    "City":"Cancun",
    "Country":"Mexico",
    "CostofLivingIndex":37.89,
    "RentIndex":11.22,
    "CostofLivingPlusRentIndex":25.34,
    "GroceriesIndex":30.94,
    "RestaurantPriceIndex":43.27,
    "LocalPurchasingPowerIndex":31.83,
    "Year":2016
    }
  },
  {
    "type": "Feature",
    "geometry": {
       "type": "Point",
       "coordinates":  [ -103.3496092,20.6596988 ]
    },
    "properties": {
    "City":"Guadalajara",
    "Country":"Mexico",
    "CostofLivingIndex":30.92,
    "RentIndex":7.76,
    "CostofLivingPlusRentIndex":20.01,
    "GroceriesIndex":29.85,
    "RestaurantPriceIndex":81.58,
    "LocalPurchasingPowerIndex":75.11,
    "Year":2016
    }
  },
  {
    "type": "Feature",
    "geometry": {
       "type": "Point",
       "coordinates":  [ -89.5925857,20.9673702 ]
    },
    "properties": {
    "City":"Merida",
    "Country":"Mexico",
    "CostofLivingIndex":33.13,
    "RentIndex":8.07,
    "CostofLivingPlusRentIndex":21.33,
    "GroceriesIndex":31.42,
    "RestaurantPriceIndex":35.53,
    "LocalPurchasingPowerIndex":63.52,
    "Year":2016
    }
  },
  {
    "type": "Feature",
    "geometry": {
       "type": "Point",
       "coordinates":  [ -99.133208,19.4326077 ]
    },
    "properties": {
    "City":"Mexico City",
    "Country":"Mexico",
    "CostofLivingIndex":37.2,
    "RentIndex":17.69,
    "CostofLivingPlusRentIndex":28.02,
    "GroceriesIndex":33.82,
    "RestaurantPriceIndex":26.46,
    "LocalPurchasingPowerIndex":52.5,
    "Year":2016
    }
  },
  {
    "type": "Feature",
    "geometry": {
       "type": "Point",
       "coordinates":  [ -100.3161126,25.6866142 ]
    },
    "properties": {
    "City":"Monterrey",
    "Country":"Mexico",
    "CostofLivingIndex":35.9,
    "RentIndex":12.61,
    "CostofLivingPlusRentIndex":24.93,
    "GroceriesIndex":33.47,
    "RestaurantPriceIndex":26.42,
    "LocalPurchasingPowerIndex":41.07,
    "Year":2016
    }
  },
  {
    "type": "Feature",
    "geometry": {
       "type": "Point",
       "coordinates":  [ -105.2253316,20.653407 ]
    },
    "properties": {
    "City":"Puerto Vallarta",
    "Country":"Mexico",
    "CostofLivingIndex":33.24,
    "RentIndex":10.96,
    "CostofLivingPlusRentIndex":22.74,
    "GroceriesIndex":30.52,
    "RestaurantPriceIndex":33.78,
    "LocalPurchasingPowerIndex":59.81,
    "Year":2016
    }
  },
  {
    "type": "Feature",
    "geometry": {
       "type": "Point",
       "coordinates":  [ -100.3898881,20.5887932 ]
    },
    "properties": {
    "City":"Queretaro",
    "Country":"Mexico",
    "CostofLivingIndex":34.81,
    "RentIndex":9.74,
    "CostofLivingPlusRentIndex":23.01,
    "GroceriesIndex":33.68,
    "RestaurantPriceIndex":32.04,
    "LocalPurchasingPowerIndex":117.66,
    "Year":2016
    }
  },
  {
    "type": "Feature",
    "geometry": {
       "type": "Point",
       "coordinates":  [ -117.0382471,32.5149469 ]
    },
    "properties": {
    "City":"Tijuana",
    "Country":"Mexico",
    "CostofLivingIndex":33.37,
    "RentIndex":8.14,
    "CostofLivingPlusRentIndex":21.49,
    "GroceriesIndex":31.39,
    "RestaurantPriceIndex":29.72,
    "LocalPurchasingPowerIndex":211.17,
    "Year":2016
    }
  },
  {
    "type": "Feature",
    "geometry": {
       "type": "Point",
       "coordinates":  [ 28.8638102,47.0104529 ]
    },
    "properties": {
    "City":"Chisinau",
    "Country":"Moldova",
    "CostofLivingIndex":27.16,
    "RentIndex":8.04,
    "CostofLivingPlusRentIndex":18.16,
    "GroceriesIndex":21.15,
    "RestaurantPriceIndex":26.73,
    "LocalPurchasingPowerIndex":84.13,
    "Year":2016
    }
  },
  {
    "type": "Feature",
    "geometry": {
       "type": "Point",
       "coordinates":  [ 106.9057439,47.8863988 ]
    },
    "properties": {
    "City":"Ulaanbaatar",
    "Country":"Mongolia",
    "CostofLivingIndex":61.3,
    "RentIndex":36.64,
    "CostofLivingPlusRentIndex":49.69,
    "GroceriesIndex":60.17,
    "RestaurantPriceIndex":30.48,
    "LocalPurchasingPowerIndex":65.27,
    "Year":2016
    }
  },
  {
    "type": "Feature",
    "geometry": {
       "type": "Point",
       "coordinates":  [ 19.2593642,42.4304196 ]
    },
    "properties": {
    "City":"Podgorica",
    "Country":"Montenegro",
    "CostofLivingIndex":40.22,
    "RentIndex":12.56,
    "CostofLivingPlusRentIndex":27.2,
    "GroceriesIndex":30.82,
    "RestaurantPriceIndex":19.5,
    "LocalPurchasingPowerIndex":30.14,
    "Year":2016
    }
  },
  {
    "type": "Feature",
    "geometry": {
       "type": "Point",
       "coordinates":  [ -7.5898434,33.5731104 ]
    },
    "properties": {
    "City":"Casablanca",
    "Country":"Morocco",
    "CostofLivingIndex":37.43,
    "RentIndex":14.72,
    "CostofLivingPlusRentIndex":26.73,
    "GroceriesIndex":33.55,
    "RestaurantPriceIndex":31.83,
    "LocalPurchasingPowerIndex":21.61,
    "Year":2016
    }
  },
  {
    "type": "Feature",
    "geometry": {
       "type": "Point",
       "coordinates":  [ -6.8498129,33.9715904 ]
    },
    "properties": {
    "City":"Rabat",
    "Country":"Morocco",
    "CostofLivingIndex":39.42,
    "RentIndex":12.41,
    "CostofLivingPlusRentIndex":26.7,
    "GroceriesIndex":33.71,
    "RestaurantPriceIndex":36.28,
    "LocalPurchasingPowerIndex":52.54,
    "Year":2016
    }
  },
  {
    "type": "Feature",
    "geometry": {
       "type": "Point",
       "coordinates":  [ 85.3239605,27.7172453 ]
    },
    "properties": {
    "City":"Kathmandu",
    "Country":"Nepal",
    "CostofLivingIndex":31.77,
    "RentIndex":4.52,
    "CostofLivingPlusRentIndex":18.94,
    "GroceriesIndex":28.69,
    "RestaurantPriceIndex":25.22,
    "LocalPurchasingPowerIndex":49.44,
    "Year":2016
    }
  },
  {
    "type": "Feature",
    "geometry": {
       "type": "Point",
       "coordinates":  [ 4.9035614,52.3679843 ]
    },
    "properties": {
    "City":"Amsterdam",
    "Country":"Netherlands",
    "CostofLivingIndex":79.9,
    "RentIndex":50.82,
    "CostofLivingPlusRentIndex":66.21,
    "GroceriesIndex":63.04,
    "RestaurantPriceIndex":26.2,
    "LocalPurchasingPowerIndex":41.95,
    "Year":2016
    }
  },
  {
    "type": "Feature",
    "geometry": {
       "type": "Point",
       "coordinates":  [ 5.4697225,51.441642 ]
    },
    "properties": {
    "City":"Eindhoven",
    "Country":"Netherlands",
    "CostofLivingIndex":70.22,
    "RentIndex":31.41,
    "CostofLivingPlusRentIndex":51.94,
    "GroceriesIndex":53.39,
    "RestaurantPriceIndex":18.51,
    "LocalPurchasingPowerIndex":27.1,
    "Year":2016
    }
  },
  {
    "type": "Feature",
    "geometry": {
       "type": "Point",
       "coordinates":  [ 6.5665017,53.2193835 ]
    },
    "properties": {
    "City":"Groningen",
    "Country":"Netherlands",
    "CostofLivingIndex":70.06,
    "RentIndex":27.14,
    "CostofLivingPlusRentIndex":49.85,
    "GroceriesIndex":57.02,
    "RestaurantPriceIndex":87.52,
    "LocalPurchasingPowerIndex":105.97,
    "Year":2016
    }
  },
  {
    "type": "Feature",
    "geometry": {
       "type": "Point",
       "coordinates":  [ 5.6909725,50.8513682 ]
    },
    "properties": {
    "City":"Maastricht",
    "Country":"Netherlands",
    "CostofLivingIndex":73.37,
    "RentIndex":30.33,
    "CostofLivingPlusRentIndex":53.1,
    "GroceriesIndex":58.37,
    "RestaurantPriceIndex":80.14,
    "LocalPurchasingPowerIndex":120.08,
    "Year":2016
    }
  },
  {
    "type": "Feature",
    "geometry": {
       "type": "Point",
       "coordinates":  [ 4.4777326,51.9244201 ]
    },
    "properties": {
    "City":"Rotterdam",
    "Country":"Netherlands",
    "CostofLivingIndex":72.96,
    "RentIndex":27.8,
    "CostofLivingPlusRentIndex":51.7,
    "GroceriesIndex":56.02,
    "RestaurantPriceIndex":76.42,
    "LocalPurchasingPowerIndex":113.35,
    "Year":2016
    }
  },
  {
    "type": "Feature",
    "geometry": {
       "type": "Point",
       "coordinates":  [ 4.3006999,52.0704978 ]
    },
    "properties": {
    "City":"The Hague",
    "Country":"Netherlands",
    "CostofLivingIndex":78.13,
    "RentIndex":40.19,
    "CostofLivingPlusRentIndex":60.27,
    "GroceriesIndex":61.52,
    "RestaurantPriceIndex":77.9,
    "LocalPurchasingPowerIndex":112.76,
    "Year":2016
    }
  },
  {
    "type": "Feature",
    "geometry": {
       "type": "Point",
       "coordinates":  [ 5.1214201,52.0907374 ]
    },
    "properties": {
    "City":"Utrecht",
    "Country":"Netherlands",
    "CostofLivingIndex":75.18,
    "RentIndex":35.05,
    "CostofLivingPlusRentIndex":56.28,
    "GroceriesIndex":61.31,
    "RestaurantPriceIndex":86.76,
    "LocalPurchasingPowerIndex":118.51,
    "Year":2016
    }
  },
  {
    "type": "Feature",
    "geometry": {
       "type": "Point",
       "coordinates":  [ 174.7633315,-36.8484597 ]
    },
    "properties": {
    "City":"Auckland",
    "Country":"New Zealand",
    "CostofLivingIndex":83.71,
    "RentIndex":45.32,
    "CostofLivingPlusRentIndex":65.63,
    "GroceriesIndex":75.33,
    "RestaurantPriceIndex":87.12,
    "LocalPurchasingPowerIndex":115.14,
    "Year":2016
    }
  },
  {
    "type": "Feature",
    "geometry": {
       "type": "Point",
       "coordinates":  [ 172.6362254,-43.5320544 ]
    },
    "properties": {
    "City":"Christchurch",
    "Country":"New Zealand",
    "CostofLivingIndex":80.52,
    "RentIndex":33.05,
    "CostofLivingPlusRentIndex":58.17,
    "GroceriesIndex":73.04,
    "RestaurantPriceIndex":86.41,
    "LocalPurchasingPowerIndex":117.81,
    "Year":2016
    }
  },
  {
    "type": "Feature",
    "geometry": {
       "type": "Point",
       "coordinates":  [ 175.279253,-37.7870012 ]
    },
    "properties": {
    "City":"Hamilton",
    "Country":"New Zealand",
    "CostofLivingIndex":87.27,
    "RentIndex":25.93,
    "CostofLivingPlusRentIndex":58.39,
    "GroceriesIndex":69.73,
    "RestaurantPriceIndex":74.33,
    "LocalPurchasingPowerIndex":104.64,
    "Year":2016
    }
  },
  {
    "type": "Feature",
    "geometry": {
       "type": "Point",
       "coordinates":  [ 174.776236,-41.2864603 ]
    },
    "properties": {
    "City":"Wellington",
    "Country":"New Zealand",
    "CostofLivingIndex":79.47,
    "RentIndex":35.94,
    "CostofLivingPlusRentIndex":58.97,
    "GroceriesIndex":70.41,
    "RestaurantPriceIndex":85.35,
    "LocalPurchasingPowerIndex":83.5,
    "Year":2016
    }
  },
  {
    "type": "Feature",
    "geometry": {
       "type": "Point",
       "coordinates":  [ 5.3220544,60.3912628 ]
    },
    "properties": {
    "City":"Bergen",
    "Country":"Norway",
    "CostofLivingIndex":105.59,
    "RentIndex":43.49,
    "CostofLivingPlusRentIndex":76.35,
    "GroceriesIndex":94.86,
    "RestaurantPriceIndex":75.85,
    "LocalPurchasingPowerIndex":129.26,
    "Year":2016
    }
  },
  {
    "type": "Feature",
    "geometry": {
       "type": "Point",
       "coordinates":  [ 10.7522454,59.9138688 ]
    },
    "properties": {
    "City":"Oslo",
    "Country":"Norway",
    "CostofLivingIndex":102.27,
    "RentIndex":45.92,
    "CostofLivingPlusRentIndex":75.74,
    "GroceriesIndex":88.48,
    "RestaurantPriceIndex":25.2,
    "LocalPurchasingPowerIndex":33.87,
    "Year":2016
    }
  },
  {
    "type": "Feature",
    "geometry": {
       "type": "Point",
       "coordinates":  [ 5.7331074,58.9699756 ]
    },
    "properties": {
    "City":"Stavanger",
    "Country":"Norway",
    "CostofLivingIndex":112.21,
    "RentIndex":39.92,
    "CostofLivingPlusRentIndex":78.17,
    "GroceriesIndex":102.76,
    "RestaurantPriceIndex":112.63,
    "LocalPurchasingPowerIndex":112.84,
    "Year":2016
    }
  },
  {
    "type": "Feature",
    "geometry": {
       "type": "Point",
       "coordinates":  [ 10.3950528,63.4305149 ]
    },