City,Country,CostofLivingIndex,RentIndex,CostofLivingPlusRentIndex,GroceriesIndex,RestaurantPriceIndex,LocalPurchasingPowerIndex,latitude,longitude,Year
Tirana,Albania,34.66,9.6,22.86,26.61,30.95,37.61,41.3275459,19.8186982,2016
Algiers,Algeria,33.92,10.12,22.71,34.02,26.54,41.82,36.753768,3.0587561,2016
Buenos Aires,Argentina,58.25,16.83,38.75,46.73,58.47,59.82,-34.6036844,-58.3815591,2016
Yerevan,Armenia,34.56,11.6,23.75,26.56,31.68,33.66,40.1791857,44.4991029,2016
Adelaide,Australia,79.34,33.66,57.83,74,78.34,137.87,-34.9284989,138.6007456,2016
Brisbane,Australia,78.97,46.68,63.76,71.87,78.81,131.13,-27.4697707,153.0251235,2016
Cairns,Australia,78.5,30.75,56.02,72.96,79.96,87.29,-16.9185514,145.7780548,2016
Canberra,Australia,75.97,44.15,60.99,73.4,75.45,164.92,-35.2809368,149.1300092,2016
Darwin,Australia,88.44,45.92,68.42,91.04,92.33,121.99,-12.4634403,130.8456418,2016
Gold Coast,Australia,74.66,37.66,57.24,69.54,70.4,130.71,-28.016667,153.4,2016
Hobart,Australia,79.52,29.52,55.98,74.64,86.37,110.79,-42.8821377,147.3271949,2016
Melbourne,Australia,78.04,44.15,62.08,72.32,74.05,142.32,-37.8136276,144.9630576,2016
Newcastle,Australia,76.56,42.79,60.66,76.51,79.19,141.59,-32.9282712,151.7816802,2016
Perth,Australia,86.87,42.75,66.09,80.75,93.7,132.36,-31.9505269,115.8604572,2016
Sydney,Australia,85.51,64.78,75.75,77,73.17,120.51,-33.8688197,151.2092955,2016
Graz,Austria,63.95,21.68,44.05,50.22,62.74,130.65,47.070714,15.439504,2016
Linz,Austria,80.37,28.29,55.85,75.05,78.92,100.03,48.30694,14.28583,2016
Vienna,Austria,67.77,31.97,50.91,59.63,68.95,108.84,48.2081743,16.3738189,2016
Baku,Azerbaijan,29.25,10.84,20.58,24.09,32.12,35.76,40.4092617,49.8670924,2016
Nassau,Bahamas,99.74,38.38,70.84,92.09,96.24,43.77,25.0479835,-77.355413,2016
Manama,Bahrain,53.9,33.35,44.22,48.46,53.36,109.42,26.2285161,50.5860497,2016
Dhaka,Bangladesh,36.29,6.81,22.41,30.64,25.92,40.49,23.810332,90.4125181,2016
Minsk,Belarus,33.93,13.09,24.12,27.39,37.85,39.74,53.9045398,27.5615244,2016
Antwerp,Belgium,79.2,27.41,54.81,70.48,89.04,99.12,51.2194475,4.4024643,2016
Brussels,Belgium,77.13,32.58,56.15,66.25,86.92,107.5,50.8503463,4.3517211,2016
Gent,Belgium,81.51,26.18,55.46,74.51,86.46,95.19,51.0543422,3.7174243,2016
Leuven,Belgium,79.98,27.04,55.06,78.84,77.48,89.13,50.8798438,4.7005176,2016
Hamilton,Bermuda,133.26,112.14,123.32,121.17,138.91,129.67,32.2945837,-64.7858887,2016
Banja Luka,Bosnia And Herzegovina,35.66,6.73,22.04,28.4,26.8,55.04,44.7721811,17.191,2016
Sarajevo,Bosnia And Herzegovina,36.81,8.33,23.4,29.92,28.7,53.74,43.8562586,18.4130763,2016
Belo Horizonte,Brazil,46.94,13.22,31.07,37.26,34.83,44.89,-19.9166813,-43.9344931,2016
Brasilia,Brazil,51.46,17.01,35.24,39.84,46.02,59.25,-15.826691,-47.9218204,2016
Campinas,Brazil,53.12,16.88,36.06,40.43,41.82,57.84,-22.9329252,-47.073845,2016
Curitiba,Brazil,46.88,12.76,30.81,36.32,38.94,51.73,-25.4808762,-49.3044253,2016
Florianopolis,Brazil,47.82,14.07,31.93,37.11,40.28,49.19,-27.5948698,-48.5482195,2016
Porto Alegre,Brazil,49.84,13.36,32.66,38.76,41.31,51.62,-30.0346471,-51.2176584,2016
Recife,Brazil,50.25,13.65,33.02,42.1,34.71,41.76,-8.0522404,-34.9286096,2016
Rio De Janeiro,Brazil,56.26,23.99,41.06,39.84,50.61,46.38,-22.9068467,-43.1728965,2016
Sao Paulo,Brazil,54.19,21.85,38.96,41.02,48.29,43.82,-23.5505199,-46.6333094,2016
Plovdiv,Bulgaria,36.18,7.42,22.64,30.48,29.79,48.3,42.1354079,24.7452904,2016
Sofia,Bulgaria,38.7,10.94,25.63,32.08,31.21,59.88,42.6977082,23.3218675,2016
Varna,Bulgaria,36.48,8,23.07,31.04,29.62,45.72,43.2140504,27.9147333,2016
Phnom Penh,Cambodia,49.38,21.65,36.32,52.83,22.51,21.55,11.5563738,104.9282099,2016
Barrie,Canada,70.65,27.03,50.11,69.04,62.51,132.95,44.3893556,-79.6903316,2016
Calgary,Canada,75.59,35.69,56.8,74.44,73.66,133,51.0486151,-114.0708459,2016
Edmonton,Canada,73.06,30.22,52.89,70.74,70.87,116.49,53.544389,-113.4909267,2016
Guelph,Canada,67.01,27.88,48.58,62.84,64.47,100.78,43.5448048,-80.2481666,2016
Halifax,Canada,75.05,26.91,52.38,77.71,74.58,104.39,44.6487635,-63.5752387,2016
Hamilton,Canada,59.9,23.14,42.59,54.54,59.37,151.38,43.2557206,-79.8711024,2016
Kelowna,Canada,64.99,30.58,48.79,62.44,66.14,121.53,49.8879519,-119.4960106,2016
Kitchener,Canada,61.97,25.18,44.64,55.13,65.24,110.89,43.4516395,-80.4925337,2016
London,Canada,69.28,23.59,47.77,69.51,65.77,144.9,42.9849233,-81.2452768,2016
Mississauga,Canada,72.19,34.73,54.55,67.78,64.44,114.87,43.5890452,-79.6441198,2016
Moncton,Canada,63.78,18.84,42.62,62.8,64.47,100.19,46.0878165,-64.7782313,2016
Montreal,Canada,67.01,24.8,47.13,67.36,62.73,115.26,45.5016889,-73.567256,2016
Ottawa,Canada,67.78,30.36,50.16,62.92,64.86,118.69,45.4215296,-75.6971931,2016
Quebec City,Canada,68.16,19.34,45.17,68.12,72.53,126.53,46.8138783,-71.2079809,2016
Red Deer,Canada,74.37,27.38,52.24,69.18,61.18,108.46,52.2681118,-113.8112386,2016
Regina,Canada,72.51,29.22,52.13,71.65,71.19,99.54,50.4452112,-104.6188943,2016
Saskatoon,Canada,73.8,27.64,52.06,77,71.08,127.65,52.1332144,-106.6700458,2016
Surrey,Canada,65.59,30.45,49.04,64.81,60.95,100.21,49.1913466,-122.8490125,2016
Toronto,Canada,69.5,39.87,55.55,64.79,62.95,77.57,43.653226,-79.3831843,2016
Vancouver,Canada,70.54,45.13,58.58,73.37,67.63,124.88,49.2827291,-123.1207375,2016
Victoria,Canada,70.56,31.55,52.19,73.34,66.45,101.38,48.4284207,-123.3656444,2016
Waterloo,Canada,79.45,29.89,56.11,76.71,64.7,111.43,43.4642578,-80.5204096,2016
Windsor,Canada,72.11,20.35,47.74,63.13,69.21,138.28,42.3149367,-83.0363633,2016
Winnipeg,Canada,68.83,25.97,48.65,65.95,62.36,120.65,49.895136,-97.1383744,2016
Santiago,Chile,50.38,17.89,35.08,43.6,65.36,102.11,-33.4488897,-70.6692655,2016
Beijing,China,51.84,41.96,47.19,51.41,46.17,62.71,39.9041999,116.4073963,2016
Chengdu,China,37.72,12.05,25.63,33.12,37.36,67.87,30.572815,104.066801,2016
Guangzhou,China,44.77,22.03,34.06,47.2,25.9,85.05,23.12911,113.264385,2016
Shanghai,China,54.31,36.25,45.8,57.81,26.34,75.9,31.2303904,121.4737021,2016
Shenzhen,China,53.18,34.51,44.39,57.64,39.65,81.8,22.543096,114.057865,2016
Bogota,Colombia,36.18,14.18,25.82,30.39,36.31,85.2,4.7109886,-74.072092,2016
Cali,Colombia,29.41,7.29,18.99,24.06,26.07,40.46,3.4516467,-76.5319854,2016
Medellin,Colombia,32.14,7.92,20.74,28.48,22.65,35.29,6.244203,-75.5812119,2016
San Jose,Costa Rica,60.32,20.83,41.72,59.38,22.24,42.71,9.9280694,-84.0907246,2016
Osijek,Croatia,45.57,7,27.41,37.77,49.18,45.17,45.5549624,18.6955144,2016
Rijeka,Croatia,52.19,11.61,33.08,42.58,30.61,59.82,45.3270631,14.442176,2016
Split,Croatia,52.56,11.85,33.39,43.51,41.16,54.98,43.5081323,16.4401935,2016
Zagreb,Croatia,50.48,12.81,32.75,42.22,49.19,56.46,45.8150108,15.9819189,2016
Limassol,Cyprus,57.89,16.9,38.59,45.02,40.13,69.54,34.7071301,33.0226174,2016
Nicosia,Cyprus,63.86,15.61,41.14,54.78,66.97,101.9,35.1855659,33.3822764,2016
Brno,Czech Republic,41.93,14.69,29.1,36.09,69.9,84.54,49.1950602,16.6068371,2016
Olomouc,Czech Republic,39.15,11.09,25.93,35.38,28.41,81.93,49.593778,17.2508787,2016
Ostrava,Czech Republic,40.5,11,26.61,34.94,27.61,85.08,49.8209226,18.2625243,2016
Prague,Czech Republic,43.85,19.47,32.37,36.83,28.5,78.01,50.0755381,14.4378005,2016
Aalborg,Denmark,81.71,23.53,54.31,63.84,32.96,83.04,57.0488195,9.921747,2016
Arhus,Denmark,81.83,32.82,58.75,59.12,95.81,118.42,56.162939,10.203921,2016
Copenhagen,Denmark,89.01,46.18,68.84,68.8,102.57,122.82,55.6760968,12.5683372,2016
Santo Domingo,Dominican Republic,53.15,15.26,35.31,46.26,108.82,115.35,18.4860575,-69.9312117,2016
Cuenca,Ecuador,46.4,12.24,30.31,48.78,42.04,24.4,-2.9001285,-79.0058965,2016
Guayaquil,Ecuador,48.76,13.25,32.04,43.96,27.16,39.79,-2.1709979,-79.9223592,2016
Quito,Ecuador,46.2,15.38,31.69,43.43,37.23,40.3,-0.1806532,-78.4678382,2016
Cairo,Egypt,35.52,9.33,23.19,31.49,34.86,39.61,30.0444196,31.2357116,2016
San Salvador,El Salvador,45.03,9.83,28.46,40.92,29.98,35.68,13.6929403,-89.2181911,2016
Tallinn,Estonia,52.73,16.71,35.77,38.16,32.44,32.31,59.4369608,24.7535747,2016
Tartu,Estonia,49.28,12.59,32,37.99,55.23,70.96,58.377983,26.7290383,2016
Addis Ababa,Ethiopia,45.17,21.85,34.19,37.27,47.37,78.36,8.9806034,38.7577605,2016
Tampere,Finland,77.11,24.89,52.52,63.45,90.98,118.11,61.4977524,23.7609535,2016
Turku,Finland,79.87,24.08,53.6,66.77,90.31,112.96,60.4518126,22.2666302,2016
Lille,France,73.7,24.51,50.54,64.51,88.98,124.37,50.62925,3.057256,2016
Lyon,France,80.9,23.76,54,75.57,71.35,104.83,45.764043,4.835659,2016
Marseille,France,65.07,22.26,44.91,57.97,76.21,106.72,43.296482,5.36978,2016
Paris,France,84.34,45.94,66.26,78.45,68.76,111.98,48.856614,2.3522219,2016
Toulouse,France,74.76,25.66,51.64,69.93,72.59,131.19,43.604652,1.444209,2016
Tbilisi,Georgia,32.53,11.28,22.53,26.21,83.85,100.24,41.7151377,44.827096,2016
Aachen,Germany,62.14,22.3,43.38,52.39,77.48,117.27,50.7753455,6.0838868,2016
Berlin,Germany,65.68,27.97,47.92,52.12,31.66,33.64,52.5200066,13.404954,2016
Bonn,Germany,65.25,28,47.71,44.66,56.62,153.14,50.73743,7.0982068,2016
Bremen,Germany,60.75,21.52,42.28,41.66,57.43,122.4,53.0792962,8.8016936,2016
Cologne,Germany,70.37,28.13,50.48,51.58,68.74,110.13,50.937531,6.9602786,2016
Dresden,Germany,60.77,20,41.57,45.74,65.33,161.8,51.0504088,13.7372621,2016
Dusseldorf,Germany,91.99,39.27,67.16,82.97,69.61,115.68,51.2277411,6.7734556,2016
Frankfurt,Germany,76.25,33.35,56.05,63.88,51.84,138.31,50.1109221,8.6821267,2016
Hamburg,Germany,75.3,32.55,55.17,61.96,84.83,108.85,53.5510846,9.9936819,2016
Heidelberg,Germany,73.04,30.9,53.2,61.24,70.41,131.95,49.3987524,8.6724335,2016
Karlsruhe,Germany,69.52,31.22,51.49,53.36,65.02,125.7,49.0068901,8.4036527,2016
Leipzig,Germany,65.49,18.67,43.44,50.9,67.09,151.7,51.3396955,12.3730747,2016
Munich,Germany,74.49,40.83,58.64,59.13,67.96,119.88,48.1351253,11.5819805,2016
Nuremberg,Germany,66.71,23.07,46.16,50.43,61.98,91.45,49.4521018,11.0766654,2016
Stuttgart,Germany,69.3,28.19,49.94,53.52,74.58,134.46,48.7758459,9.1829321,2016
Accra,Ghana,64.16,46.19,55.7,59.38,69.84,151.41,5.6037168,-0.1869644,2016
Athens,Greece,58.75,12.24,36.85,45.43,67.57,142.13,37.9838096,23.7275388,2016
Patras,Greece,51.47,9.37,31.64,38.95,64.36,56.39,38.2466395,21.734574,2016
Thessaloniki,Greece,55.41,10.29,34.17,42.73,52.76,86.21,40.6400629,22.9444191,2016
Guatemala City,Guatemala,43.98,14.56,30.12,39.39,55.92,81.62,14.6349149,-90.5068824,2016
Hong Kong,Hong Kong,77.69,82.04,79.74,78.36,57.83,61.9,22.3193039,114.1693611,2016
Budapest,Hungary,44.66,15,30.7,34.54,37.1,52.41,47.497912,19.040235,2016
Debrecen,Hungary,41.66,9.82,26.66,34.79,54.34,91.98,47.5316049,21.6273124,2016
Reykjavik,Iceland,104.95,47.4,77.85,97.16,34.59,54.73,64.146582,-21.9426354,2016
Ahmedabad,India,23.99,5.32,15.2,24.59,30.25,43.72,23.022505,72.5713621,2016
Bangalore,India,26.23,8.67,17.96,26.86,111.95,84.48,12.9715987,77.5945627,2016
Bhubaneswar,India,22.44,4.15,13.83,23.27,15.88,72.71,20.2960587,85.8245398,2016
Chandigarh,India,25.64,6.46,16.61,25.49,16.46,103.17,30.7333148,76.7794179,2016
Chennai,India,25.77,6.98,16.92,27.37,12.9,65.31,13.0826802,80.2707184,2016
Coimbatore,India,23.09,5.43,14.77,23.32,17.68,64.32,11.0168445,76.9558321,2016
Delhi,India,27.97,9.78,19.4,25.61,15.58,83.75,28.7040592,77.1024902,2016
Goa,India,25.44,7.8,17.13,24.28,16.35,47.37,15.2993265,74.123996,2016
Gurgaon,India,30.76,9.78,20.88,29.14,21.82,81.22,28.4594965,77.0266383,2016
Hyderabad,India,23.48,5.85,15.18,24.37,20.63,63.66,17.385044,78.486671,2016
Indore,India,23.74,4.12,14.5,22.9,26.61,106.17,22.7195687,75.8577258,2016
Jaipur,India,24.81,4.2,15.11,24.46,14.33,85.16,26.9124336,75.7872709,2016
Kochi,India,22.82,5.09,14.47,24.31,16.29,46.74,9.9312328,76.2673041,2016
Kolkata,India,25.45,6.52,16.53,25.24,14.66,81.83,22.572646,88.363895,2016
Lucknow (Lakhnau),India,26.25,4.95,16.22,26.66,12.76,82.94,26.8466937,80.946166,2016
Mangalore,India,21.88,5.15,14,21.21,15.74,58.91,12.9141417,74.8559568,2016
Mumbai,India,28.82,20.86,25.07,29.16,20.43,65.71,19.0759837,72.8776559,2016
Mysore,India,25.37,4.43,15.51,30.65,12.71,114.63,12.2958104,76.6393805,2016
Nagpur,India,23.09,4.22,14.2,24.32,21.56,69.56,21.1458004,79.0881546,2016
Navi Mumbai,India,25.7,9.39,18.02,25.27,11.84,39.28,19.0330488,73.0296625,2016
Noida,India,27.14,6.67,17.5,27.25,16.84,69.95,28.5355161,77.3910265,2016
Pune,India,25.58,7.44,17.04,26.15,20.83,92.33,18.5204303,73.8567437,2016
Surat,India,25.17,4.78,15.57,24.46,19.74,100.67,21.1702401,72.8310607,2016
Thane,India,27.73,8.56,18.7,28.16,17.7,116.27,19.2183307,72.9780897,2016
Thiruvananthapuram,India,19.55,4.57,12.5,19.83,20.27,58.87,8.5241391,76.9366376,2016
Vadodara,India,26.1,4.3,15.83,27.59,18.03,60.4,22.3071588,73.1812187,2016
Visakhapatnam,India,24.11,5.34,15.27,25.43,11.39,81.6,17.6868159,83.2184815,2016
Bali,Indonesia,39.7,13.57,27.4,42.44,18.39,76.13,-8.3405389,115.0919509,2016
Bandung,Indonesia,35.51,7.67,22.4,41.88,14.03,58.98,-6.9174639,107.6191228,2016
Jakarta,Indonesia,45.24,24.89,35.66,48.74,22.62,26.44,-6.2087634,106.845599,2016
Surabaya,Indonesia,40.92,11.78,27.2,42.55,15.87,29.78,-7.2574719,112.7520883,2016
Yogyakarta,Indonesia,37.83,7.64,23.61,36.93,25.44,44.09,-7.7955798,110.3694896,2016
Tehran,Iran,40.27,22.04,31.69,35.34,22.53,29.07,35.6891975,51.3889736,2016
Baghdad,Iraq,47.87,17.03,33.35,36.71,14.48,18.06,33.315241,44.3660671,2016
Irbil,Iraq,57.3,20.32,39.89,41.98,35.31,45.95,36.2062933,44.0088697,2016
Cork,Ireland,75.88,34.98,56.62,64.79,45.15,63.93,51.8985143,-8.4756035,2016
Dublin,Ireland,82.25,50.65,67.37,66.17,59.79,45.09,53.3498053,-6.2603097,2016
Galway,Ireland,72.5,30.74,52.84,58.31,79.56,135,53.270668,-9.0567905,2016
Limerick,Ireland,88.14,22.25,57.11,83.24,87.55,106.56,52.6638367,-8.6267343,2016
Haifa,Israel,74.22,21.13,49.22,59.53,77.72,104.15,32.7940463,34.989571,2016
Jerusalem,Israel,76.77,30.54,55,61.57,77.41,84.54,31.768319,35.21371,2016
Ramat Gan,Israel,81.18,30.86,57.49,67.72,82.73,103.11,32.068424,34.824785,2016
Tel AvivNAyafo,Israel,81.12,39.8,61.66,66.51,82.99,95.44,32.0852999,34.7817676,2016
Bergamo,Italy,73.26,20.52,48.43,58,87.36,91.46,45.6982642,9.6772698,2016
Florence,Italy,73.74,28.51,52.44,60.99,73.98,98.03,43.7695604,11.2558136,2016
Genoa,Italy,75.35,21.5,49.99,67.4,66.43,102.19,44.4056499,8.946256,2016
Milan,Italy,76.2,39.25,58.8,65.34,77.62,72.14,45.4642035,9.189982,2016
Naples,Italy,67.86,22.27,46.39,63.45,77.26,79.48,40.8517983,14.26812,2016
Padova,Italy,72.54,22.24,48.86,59.31,85.11,86.71,45.4064349,11.8767611,2016
Parma,Italy,72.7,24.11,49.82,59.17,62.34,50.74,44.801485,10.3279036,2016
Rome,Italy,71.79,38.7,56.21,60.38,74.26,73.55,41.9027835,12.4963655,2016
Trieste,Italy,68.7,20.97,46.23,59.26,84.74,88.43,45.6495264,13.7768182,2016
Turin,Italy,69.16,21.03,46.5,59.79,77,82.5,45.0703393,7.686864,2016
Osaka,Japan,78.5,23.56,52.63,81.27,71.32,90.07,34.6937249,135.5022535,2016
Tokyo,Japan,89.74,43.44,67.94,94.03,38.32,36.87,35.6761919,139.6503106,2016
Amman,Jordan,58.61,13.71,37.47,48.76,42.93,105.08,31.9453666,35.9283716,2016
Almaty,Kazakhstan,31.03,12.24,22.18,25.15,55.66,98.09,43.2220146,76.8512485,2016
Astana,Kazakhstan,31.02,16.27,24.07,23.47,57.05,46.07,51.1605227,71.4703558,2016
Nairobi,Kenya,42.39,16.82,30.35,37.45,32.52,50.24,-1.2920659,36.8219462,2016
Riga,Latvia,49.57,13.26,32.47,36.19,32.11,45.96,56.9496487,24.1051865,2016
Beirut,Lebanon,62.26,40.23,51.88,45.48,33.59,29.12,33.8937913,35.5017767,2016
Kaunas,Lithuania,46.3,10.24,29.32,34.83,45.09,56.92,54.8985207,23.9035965,2016
Vilnius,Lithuania,48.62,15.39,32.98,37.79,61.06,60.16,54.6871555,25.2796514,2016
Luxembourg,Luxembourg,80.99,51.47,67.09,61.68,40.08,53.56,49.611621,6.1319346,2016
Skopje,Macedonia,35.72,8.69,22.99,28.3,42.05,57.9,41.9960421,21.431647,2016
Johor Bahru,Malaysia,42.39,11.98,28.07,48.59,100.81,148.47,1.492659,103.7413591,2016
Kota Kinabalu,Malaysia,49.08,8.46,29.96,52.52,27.61,41.69,5.980408,116.0734568,2016
Kuala Lumpur,Malaysia,44.07,18.08,31.84,45.41,20.38,63.32,3.139003,101.686855,2016
Penang,Malaysia,45.86,9.53,28.75,50.78,24.77,59.29,5.4163935,100.3326786,2016
Selangor,Malaysia,43.91,11.88,28.83,49.84,25.25,90.73,3.0738379,101.5183469,2016
Male,Maldives,60.28,32.02,46.97,58.34,23.44,77.63,35.937496,14.375416,2016
Sliema,Malta,68.43,28.99,49.86,58.42,19.28,102.6,35.9110081,14.502904,2016
Cancun,Mexico,37.89,11.22,25.34,30.94,43.27,31.83,21.161908,-86.8515279,2016
Guadalajara,Mexico,30.92,7.76,20.01,29.85,81.58,75.11,20.6596988,-103.3496092,2016
Merida,Mexico,33.13,8.07,21.33,31.42,35.53,63.52,20.9673702,-89.5925857,2016
Mexico City,Mexico,37.2,17.69,28.02,33.82,26.46,52.5,19.4326077,-99.133208,2016
Monterrey,Mexico,35.9,12.61,24.93,33.47,26.42,41.07,25.6866142,-100.3161126,2016
Puerto Vallarta,Mexico,33.24,10.96,22.74,30.52,33.78,59.81,20.653407,-105.2253316,2016
Queretaro,Mexico,34.81,9.74,23.01,33.68,32.04,117.66,20.5887932,-100.3898881,2016
Tijuana,Mexico,33.37,8.14,21.49,31.39,29.72,211.17,32.5149469,-117.0382471,2016
Chisinau,Moldova,27.16,8.04,18.16,21.15,26.73,84.13,47.0104529,28.8638102,2016
Ulaanbaatar,Mongolia,61.3,36.64,49.69,60.17,30.48,65.27,47.8863988,106.9057439,2016
Podgorica,Montenegro,40.22,12.56,27.2,30.82,19.5,30.14,42.4304196,19.2593642,2016
Casablanca,Morocco,37.43,14.72,26.73,33.55,31.83,21.61,33.5731104,-7.5898434,2016
Rabat,Morocco,39.42,12.41,26.7,33.71,36.28,52.54,33.9715904,-6.8498129,2016
Kathmandu,Nepal,31.77,4.52,18.94,28.69,25.22,49.44,27.7172453,85.3239605,2016
Amsterdam,Netherlands,79.9,50.82,66.21,63.04,26.2,41.95,52.3679843,4.9035614,2016
Eindhoven,Netherlands,70.22,31.41,51.94,53.39,18.51,27.1,51.441642,5.4697225,2016
Groningen,Netherlands,70.06,27.14,49.85,57.02,87.52,105.97,53.2193835,6.5665017,2016
Maastricht,Netherlands,73.37,30.33,53.1,58.37,80.14,120.08,50.8513682,5.6909725,2016
Rotterdam,Netherlands,72.96,27.8,51.7,56.02,76.42,113.35,51.9244201,4.4777326,2016
The Hague,Netherlands,78.13,40.19,60.27,61.52,77.9,112.76,52.0704978,4.3006999,2016
Utrecht,Netherlands,75.18,35.05,56.28,61.31,86.76,118.51,52.0907374,5.1214201,2016
Auckland,New Zealand,83.71,45.32,65.63,75.33,87.12,115.14,-36.8484597,174.7633315,2016
Christchurch,New Zealand,80.52,33.05,58.17,73.04,86.41,117.81,-43.5320544,172.6362254,2016
Hamilton,New Zealand,87.27,25.93,58.39,69.73,74.33,104.64,-37.7870012,175.279253,2016
Wellington,New Zealand,79.47,35.94,58.97,70.41,85.35,83.5,-41.2864603,174.776236,2016
Bergen,Norway,105.59,43.49,76.35,94.86,75.85,129.26,60.3912628,5.3220544,2016
Oslo,Norway,102.27,45.92,75.74,88.48,25.2,33.87,59.9138688,10.7522454,2016
Stavanger,Norway,112.21,39.92,78.17,102.76,112.63,112.84,58.9699756,5.7331074,2016
Trondheim,Norway,111.42,39.76,77.68,100.6,120.76,113.31,63.4305149,10.3950528,2016
Muscat,Oman,51.63,31.43,42.12,46.52,131.01,130.96,23.58589,58.4059227,2016
Islamabad,Pakistan,32.78,9.05,21.61,28.67,119.82,103.55,33.6844202,73.0478848,2016
Karachi,Pakistan,28.47,6.58,18.16,26.7,57.25,137.14,24.8607343,67.0011364,2016
Lahore,Pakistan,31.54,6.2,19.61,27.54,23.24,37.44,31.5203696,74.3587473,2016
Panama City,Panama,60.57,37.97,49.93,59.96,21.11,45.85,8.9823792,-79.5198696,2016
Asuncion,Paraguay,32.51,9.03,21.45,24.96,27.57,45.61,-25.2637399,-57.575926,2016
Lima,Peru,40.65,18.27,30.11,35.88,59.04,39.95,-12.0463731,-77.042754,2016
Cebu,Philippines,40.88,12.17,27.36,40.22,26.97,43.43,10.607936,123.8857747,2016
Davao,Philippines,32.88,5.9,20.18,30.44,27.95,50.49,7.190708,125.455341,2016
Makati,Philippines,48.43,32.65,41,44.59,25.97,27.1,14.554729,121.0244452,2016
Manila,Philippines,41.96,15.95,29.71,38.5,15.89,41.02,14.5995124,120.9842195,2016
Quezon City,Philippines,35.97,8.25,22.92,32.2,29.54,41.75,14.6760413,121.0437003,2016
Valenzuela,Philippines,31.51,3.5,18.32,31.41,26.07,46.8,14.7010556,120.9830225,2016
Bydgoszcz,Poland,39.89,12.04,26.77,31.25,20.94,44.25,53.1234804,18.0084378,2016
Gdansk,Poland,39.89,14.11,27.75,28.92,15.7,39.19,54.3520252,18.6466384,2016
Gdynia,Poland,38.79,12.38,26.35,30.11,36.3,69.55,54.5188898,18.5305409,2016
Katowice,Poland,36.61,10.89,24.5,29,33.25,73.02,50.2648919,19.0237815,2016
Krakow (Cracow),Poland,39.16,15.9,28.21,30.8,32.09,73.04,50.0646501,19.9449799,2016
Lodz,Poland,37,12.15,25.3,28.6,29.95,80.1,51.7592485,19.4559833,2016
Lublin,Poland,36.08,13.19,25.3,27.54,32.09,76.03,51.2464536,22.5684463,2016
Poznan,Poland,39.11,13.39,27,32.09,31.88,65.54,52.406374,16.9251681,2016
Szczecin,Poland,38.75,10.39,25.4,30.11,26.62,68.6,53.4285438,14.5528116,2016
Warsaw,Poland,41.15,19.34,30.88,31.76,33.42,69.07,52.2296756,21.0122287,2016
Wroclaw,Poland,39.44,16.55,28.66,30.73,30.86,68.01,51.1078852,17.0385376,2016
Braga,Portugal,46.84,11.82,30.35,36.51,35.19,80.18,41.5454486,-8.426507,2016
Coimbra,Portugal,47.34,14.06,31.67,36.82,33.16,74.91,40.2033145,-8.4102573,2016
Lisbon,Portugal,51.65,21.87,37.62,41.09,36.23,70.01,38.7222524,-9.1393366,2016
Porto,Portugal,49.26,16.26,33.72,38.58,38.26,75.13,41.1579438,-8.6291053,2016
San Juan,Puerto Rico,67.31,25.49,47.62,61.73,45.85,68.2,18.4655394,-66.1057355,2016
Doha,Qatar,66.92,70.42,68.57,53.54,40.05,72.67,25.2854473,51.5310398,2016
Arad,Romania,34.74,8.1,22.2,28.77,66.63,89.14,46.1865606,21.3122677,2016
Brasov,Romania,35.57,8.66,22.9,28.37,72.68,129.92,45.6579755,25.6011977,2016
Bucharest,Romania,39.34,12.35,26.63,31.2,26.16,61.51,44.4267674,26.1025384,2016
Cluj-napoca,Romania,37.5,11.37,25.19,31.93,31.28,59.83,46.7712101,23.6236353,2016
Craiova,Romania,31.53,5.9,19.46,25.18,35.91,54.54,44.3301785,23.7948807,2016
Iasi,Romania,34.76,9.75,22.98,27.69,29.49,56.3,47.1584549,27.6014418,2016
Sibiu,Romania,36.53,8.09,23.14,29.26,23.59,57.37,45.7983273,24.1255826,2016
Timisoara,Romania,36.22,9.21,23.5,29.55,28.27,50.39,45.7488716,21.2086793,2016
Moscow,Russia,41.12,27.14,34.54,31.01,29.35,46.94,55.755826,37.6172999,2016
Novosibirsk,Russia,30.78,10.11,21.05,27.39,27.72,56.42,55.0083526,82.9357327,2016
Saint Petersburg,Russia,38.06,17.41,28.34,30.16,48.63,60.83,59.9342802,30.3350986,2016
Yekaterinburg,Russia,33.82,11.38,23.25,27.96,27.76,52.39,56.8389261,60.6057025,2016
Kigali,Rwanda,39.42,13.02,26.99,31.09,40.38,53.91,-1.9705786,30.1044288,2016
Ad Dammam,Saudi Arabia,67.75,13.5,42.21,79.66,34.61,51.11,26.4206828,50.0887943,2016
Al Khobar,Saudi Arabia,47.54,15.95,32.67,40.29,29.46,28.74,26.2171906,50.1971381,2016
Jeddah (Jiddah),Saudi Arabia,48.98,14.91,32.94,39.64,34.24,108.9,21.485811,39.1925048,2016
Riyadh,Saudi Arabia,47.79,16.43,33.02,39.02,33.96,279.02,24.7135517,46.6752957,2016
Belgrade,Serbia,36.86,10.08,24.25,26.6,33.21,122.95,44.786568,20.4489216,2016
Nis,Serbia,30.12,5.1,18.34,22.44,32.66,175.47,43.3209022,21.8957589,2016
Novi Sad,Serbia,34.67,6.33,21.33,25.67,32.99,44.06,45.2671352,19.8335496,2016
Singapore,Singapore,86.11,76.65,81.66,75.58,24.51,42.68,1.352083,103.819836,2016
Bratislava,Slovakia,49.31,20.38,35.69,43.62,28.26,49.15,48.1485965,17.1077478,2016
Kosice,Slovakia,46.63,15.23,31.85,42.05,60.69,101.51,48.7163857,21.2610746,2016
Ljubljana,Slovenia,57.08,18.04,38.7,46.87,38.53,74.13,46.0569465,14.5057515,2016
Cape Town,South Africa,38.15,21.62,30.37,30.92,30.58,61.01,-33.9248685,18.4240553,2016
Durban,South Africa,36.79,13.9,26.01,28.94,48.35,79.95,-29.8586804,31.0218404,2016
Johannesburg,South Africa,41.15,17.29,29.92,33.2,37.72,107.47,-26.2041028,28.0473051,2016
Pretoria,South Africa,39.47,13.31,27.15,31.66,35.21,106.07,-25.7478676,28.2292712,2016
Seoul,South Korea,83.2,48.58,66.9,97.12,39.22,116.89,37.566535,126.9779692,2016
Barcelona,Spain,64.25,27.46,46.93,53.25,35,126.19,41.3850639,2.1734035,2016
Bilbao,Spain,65.24,27.72,47.58,55.19,47.99,93.33,43.2630126,-2.9349852,2016
Madrid,Spain,61.48,28.83,46.11,48.78,62.07,92.16,40.4167754,-3.7037902,2016
Malaga,Spain,51.66,17.54,35.6,42.24,69.37,97.83,36.7212737,-4.4213988,2016
Palma De Mallorca,Spain,59.44,20.26,40.99,48.62,63.21,89.26,39.5696005,2.6501603,2016
Sevilla,Spain,51.96,19.57,36.71,42.31,47.11,108.71,37.3890924,-5.9844589,2016
Valencia,Spain,53.67,16.79,36.3,43.01,57.3,90.69,39.4699075,-0.3762881,2016
Zaragoza (Saragossa),Spain,64.52,16.53,41.93,55.92,48.98,91.42,41.6488226,-0.8890853,2016
Colombo,Sri Lanka,36.29,11.71,24.72,40.14,53.14,92.6,6.9270786,79.861243,2016
Gothenburg,Sweden,75.79,27.38,53,68.95,56.39,83.35,57.70887,11.97456,2016
Malmo,Sweden,72.16,27.69,51.22,68.19,20.95,25.45,55.604981,13.003822,2016
Stockholm,Sweden,84.85,40.97,64.19,77.06,80.16,122.41,59.3293235,18.0685808,2016
Uppsala,Sweden,73.69,24.01,50.3,61.77,73.3,129.25,59.8585638,17.6389267,2016
Basel,Switzerland,130.43,49.86,92.49,133.13,88.93,112.88,47.5595986,7.5885761,2016
Bern,Switzerland,120.3,46.38,85.49,118.18,77.08,123.97,46.9479739,7.4474468,2016
Geneva,Switzerland,133.14,76.32,106.39,125.78,120.9,130.14,46.2043907,6.1431577,2016
Lausanne,Switzerland,121.14,55.15,90.07,117.69,117.81,144,46.5196535,6.6322734,2016
Lugano,Switzerland,118.99,50.22,86.61,111.31,134.71,145.3,46.0036778,8.951052,2016
Zurich,Switzerland,132.32,66.33,101.25,129.27,127.67,141.45,47.3768866,8.541694,2016
Kaohsiung,Taiwan,51.24,10.79,32.2,56.61,120.27,163.79,22.6272784,120.3014353,2016
Taipei,Taiwan,64.76,21.52,44.4,76.4,135.98,159.67,25.0329694,121.5654177,2016
Dar Es Salaam,Tanzania,56.99,30.68,44.6,48.48,22.92,100.92,-6.792354,39.2083284,2016
Bangkok,Thailand,50.51,25.91,38.93,55.05,30.89,126.74,13.7563309,100.5017651,2016
Chiang Mai,Thailand,41.05,12.38,27.55,49.58,36.92,38.5,18.7060641,98.9817163,2016
Pattaya,Thailand,44.03,16.9,31.26,48.06,26.04,49.86,12.9235557,100.8824551,2016
Phuket,Thailand,48.57,14.09,32.33,52.91,19.81,33.57,7.9519331,98.3380884,2016
Tunis,Tunisia,31.18,7.31,19.94,28.86,25.41,26.63,36.8064948,10.1815316,2016
Ankara,Turkey,44.84,9.02,27.97,39.6,25.38,47.61,39.9333635,32.8597419,2016
Antalya,Turkey,44.48,7.49,27.06,38.9,21.82,39.87,36.8968908,30.7133233,2016
Bursa,Turkey,42.73,7.18,25.99,36.99,33.33,70.6,40.1885281,29.0609636,2016
Istanbul,Turkey,49.65,17.18,34.36,42.28,34.2,60.66,41.0082376,28.9783589,2016
Izmir,Turkey,44.18,9.95,28.06,37.8,29.29,73.36,38.423734,27.142826,2016
Kampala,Uganda,38.69,7.9,24.19,32.94,36.92,58.15,0.3475964,32.5825197,2016
Dnipropetrovsk,Ukraine,26.61,6.93,17.34,19.18,32.75,61.39,48.464717,35.046183,2016
Kharkiv,Ukraine,26.11,9.97,18.51,19.64,26.61,21.56,49.9935,36.230383,2016
Kiev,Ukraine,28.61,13.17,21.34,21.46,20.71,27.38,50.4501,30.5234,2016
Lviv,Ukraine,24.48,8.66,17.03,19.63,18.84,25.15,49.839683,24.029717,2016
Odesa,Ukraine,28.43,8.39,18.99,19.73,23.53,31.96,46.482526,30.7233095,2016
Abu Dhabi,United Arab Emirates,62.74,69.91,66.12,53.59,15.41,24.75,24.453884,54.3773438,2016
Dubai,United Arab Emirates,69.01,76.08,72.34,56.8,28.55,36.44,25.2048493,55.2707828,2016
Sharjah,United Arab Emirates,58.18,31.17,45.46,48.37,61.65,134.74,25.3462553,55.4209317,2016
Aberdeen,United Kingdom,82.12,33.49,59.22,62.94,64.55,122.84,57.149717,-2.094278,2016
Belfast,United Kingdom,62.65,23.6,44.26,57.26,46.05,117.72,54.597285,-5.93012,2016
Birmingham,United Kingdom,68.23,28.54,49.54,56.23,97.71,124.41,52.486243,-1.890401,2016
Brighton,United Kingdom,78.89,43.23,62.1,66.8,70.79,109.29,50.82253,-0.137163,2016
Bristol,United Kingdom,74.34,37.61,57.04,64.49,73.46,107.67,51.454513,-2.58791,2016
Cambridge,United Kingdom,75.12,43.75,60.35,61.83,89.47,87.14,52.205337,0.121817,2016
Cardiff,United Kingdom,67.14,25.7,47.63,57.9,83.44,98.9,51.481581,-3.17909,2016
Coventry,United Kingdom,66,30.74,49.4,52.67,85.1,125.5,52.406822,-1.519693,2016
Edinburgh,United Kingdom,73.15,31.89,53.72,61.54,73.25,125.08,55.953252,-3.188267,2016
Glasgow,United Kingdom,70.73,27.72,50.48,56.87,69.83,110.98,55.864237,-4.251806,2016
Leeds,United Kingdom,66.66,26.81,47.9,56.89,80.34,107.1,53.8007554,-1.5490774,2016
Liverpool,United Kingdom,70.45,24.19,48.67,61.05,84.03,114.54,53.4083714,-2.9915726,2016
London,United Kingdom,85.11,77.31,81.44,61.25,72.55,114.75,51.5073509,-0.1277583,2016
Manchester,United Kingdom,69.41,30.39,51.04,55.72,69.31,106.67,53.4807593,-2.2426305,2016
Newcastle Upon Tyne,United Kingdom,67.1,26.01,47.76,52.29,94.63,87.57,54.978252,-1.61778,2016
Norwich,United Kingdom,73.42,26.57,51.36,56,76.98,110.15,52.6308859,1.297355,2016
Nottingham,United Kingdom,66.88,24.43,46.89,60.24,76.27,118.25,52.9547832,-1.1581086,2016
Oxford,United Kingdom,74.14,52.2,63.81,61.12,81.17,100.54,51.7520209,-1.2577263,2016
Reading,United Kingdom,71.67,40.28,56.89,53.81,64.43,134.58,51.4542645,-0.9781303,2016
Sheffield,United Kingdom,65.91,24.07,46.21,56.97,78.25,101.95,53.381129,-1.470085,2016
Southampton,United Kingdom,73.22,31.68,53.66,63.49,82.06,103,50.9097004,-1.4043509,2016
Akron,United States,86.83,21.98,56.3,94.44,77.18,107.15,41.0814447,-81.5190053,2016
Albuquerque,United States,64.46,25.22,45.98,61.95,76.56,114.19,35.0843859,-106.650422,2016
Anchorage,United States,95.68,43.63,71.17,95.09,68.67,138.87,61.2180556,-149.9002778,2016
Ann Arbor,United States,66.78,41.87,55.05,62.84,74.59,82.12,42.2808256,-83.7430378,2016
Arlington,United States,87.48,75.14,81.67,82.12,86.34,142.68,38.8816208,-77.0909809,2016
Asheville,United States,80.21,36.91,59.82,89.02,62.21,160.88,35.5950581,-82.5514869,2016
Atlanta,United States,73.98,40.9,58.4,74.35,88.06,116.39,33.7489954,-84.3879824,2016
Austin,United States,69.85,50.56,60.77,66.49,70.28,143.33,30.267153,-97.7430608,2016
Bakersfield,United States,70.52,26.85,49.96,70.77,68.63,151.56,35.3732921,-119.0187125,2016
Baltimore,United States,76.83,49.19,63.81,76.6,69.41,126.94,39.2903848,-76.6121893,2016
Berkeley,United States,88.72,77.46,83.42,96.91,69.57,142.94,37.8715926,-122.272747,2016
Birmingham,United States,66.68,27.55,48.26,65.88,77.41,152.44,33.5185892,-86.8103567,2016
Boise,United States,63,28.14,46.58,61.74,79.12,106.72,43.6150186,-116.2023137,2016
Boston,United States,82.97,75.84,79.62,81.69,69.97,133.32,42.3600825,-71.0588801,2016
Boulder,United States,77.1,57.75,67.99,69.45,66.11,115.85,40.0149856,-105.2705456,2016
Brooklyn,United States,87.4,81.03,84.4,83.35,84.74,137.46,40.6781784,-73.9441579,2016
Buffalo,United States,75.67,27.9,53.18,77.05,83.69,143.93,42.8864468,-78.8783689,2016
Burlington,United States,86.69,42,65.65,96.42,99.09,106.13,44.4758825,-73.212072,2016
Charleston,United States,83.18,49.28,67.22,90.43,70.16,120.28,32.7764749,-79.9310512,2016
Charlotte,United States,72.63,40.45,57.47,74.72,77.95,127.41,35.2270869,-80.8431267,2016
Chattanooga,United States,74.05,25.84,51.35,80.51,79.47,140.74,35.0456297,-85.3096801,2016
Chicago,United States,84.14,56.68,71.21,82.67,67.8,130.42,41.8781136,-87.6297982,2016
Cincinnati,United States,70.77,31.67,52.36,64.3,67.4,149.64,39.1031182,-84.5120196,2016
Cleveland,United States,78.52,30.34,55.83,79.98,84.15,128.59,41.49932,-81.6943605,2016
Columbia,United States,70.72,30.62,51.83,77.54,71.51,137.97,34.0007104,-81.0348144,2016
Columbus,United States,70.75,36.67,54.7,69.46,71.5,116.9,39.9611755,-82.9987942,2016
Dallas,United States,67.64,41.87,55.5,60.87,61.79,94.09,32.7766642,-96.7969879,2016
Dayton,United States,69.93,22.44,47.57,70.09,63.62,126.35,39.7589478,-84.1916069,2016
Denver,United States,78.76,53.48,66.85,75.14,70.42,172.18,39.7392358,-104.990251,2016
Des Moines,United States,76.63,31.16,55.22,85.47,61.28,115.75,41.5868353,-93.6249593,2016
Detroit,United States,74.52,32.58,54.77,73.68,76.17,126.63,42.331427,-83.0457538,2016
Durham,United States,71.3,34.48,53.96,77.38,63.94,103.54,35.9940329,-78.898619,2016
Eugene,United States,71.13,31.01,52.24,77.67,63.64,158.96,44.0520691,-123.0867536,2016
Fayetteville,United States,73.44,21.79,49.12,77.69,63.39,185.2,35.0526641,-78.8783585,2016
Fort Collins,United States,82.96,39.16,62.34,90.86,60.37,138.62,40.5852602,-105.084423,2016
Fort Lauderdale,United States,74.65,58.79,67.18,73.46,66.31,100.23,26.1224386,-80.1373174,2016
Fort Myers,United States,71.36,29.25,51.53,73.98,75.52,88.36,26.640628,-81.8723084,2016
Fort Worth,United States,71.99,36.37,55.22,71.98,73.78,108.5,32.7554883,-97.3307658,2016
Fresno,United States,76.02,32.31,55.44,72.13,60.74,174.79,36.7377981,-119.7871247,2016
Grand Rapids,United States,74.83,33.36,55.31,75.09,77.93,105.46,42.9633599,-85.6680863,2016
Greensboro,United States,75.71,26.17,52.38,81.29,61.78,100.68,36.0726354,-79.7919754,2016
Greenville,United States,71.16,36.47,54.82,74.86,68.1,135.47,34.8526176,-82.3940104,2016
Harrisburg,United States,72.95,25.1,50.42,77.9,60.08,169.02,40.2731911,-76.8867008,2016
Hartford,United States,74.74,40.63,58.68,74.54,66.79,146.03,41.7658043,-72.6733723,2016
Honolulu,United States,96.55,67.54,82.89,106.08,64,159.64,21.3069444,-157.8583333,2016
Houston,United States,70.43,45.8,58.83,66.27,82.38,132.22,29.7604267,-95.3698028,2016
Huntsville,United States,68.67,22.51,46.93,67.61,84.28,89.38,34.7303688,-86.5861037,2016
Indianapolis,United States,73.72,31.1,53.66,75.48,77.05,157.89,39.768403,-86.158068,2016
Irvine,United States,81.99,64.68,73.84,89.37,68.31,142.61,33.6845673,-117.8265049,2016
Jacksonville,United States,72.31,32.84,53.72,72.99,66.08,97.08,30.3321838,-81.655651,2016
Jersey City,United States,74.48,64.37,69.72,72.46,66.61,143.55,40.7177545,-74.0431435,2016
Kansas City,United States,67.05,30.23,49.71,65.07,73.37,113.46,39.0997265,-94.5785667,2016
Knoxville,United States,69.65,30.72,51.32,75.3,63.17,175.5,35.9606384,-83.9207392,2016
Las Vegas,United States,78.6,31.13,56.25,72.68,66.85,171.96,36.1699412,-115.1398296,2016
Lexington,United States,77.84,28.84,54.76,80.13,64.71,126.93,38.0405837,-84.5037164,2016
Little Rock,United States,71.4,27.29,50.63,77.12,82.27,120.33,34.7464809,-92.2895948,2016
Los Angeles,United States,78.66,66.99,73.16,75.12,69.29,117.49,34.0522342,-118.2436849,2016
Louisville,United States,73.37,28.13,52.07,82.03,63.25,134.28,38.2526647,-85.7584557,2016
Madison,United States,67.64,38.03,53.7,65.62,81.92,123.61,43.0730517,-89.4012302,2016
Melbourne,United States,79.88,29.47,56.14,92.03,61.41,122.48,28.0836269,-80.6081089,2016
Memphis,United States,71.62,30.76,52.38,73.9,64.57,137.47,35.1495343,-90.0489801,2016
Miami,United States,80.67,58.92,70.43,77.1,68.69,113.14,25.7616798,-80.1917902,2016
Milwaukee,United States,72.63,32.67,53.81,71.81,68.95,131.57,43.0389025,-87.9064736,2016
Minneapolis,United States,80.8,41.67,62.37,87.79,85.97,107.88,44.977753,-93.2650108,2016
Mobile,United States,65.23,24.49,46.05,64.72,74.69,133.67,30.6953657,-88.0398912,2016
Nashville,United States,71.35,45,58.94,71.16,69.4,126.76,36.1626638,-86.7816016,2016
New Haven,United States,90.72,49.07,71.11,102.15,64.21,157.92,41.308274,-72.9278835,2016
New Orleans,United States,75.6,39.48,58.6,73.77,71.59,148.72,29.9510658,-90.0715323,2016
New York,United States,100,100,100,100,97.55,142.42,40.7127753,-74.0059728,2016
Newark,United States,69.12,35.57,53.32,58.79,76.65,96.19,40.735657,-74.1723667,2016
Oakland,United States,88.33,76.78,82.89,93.02,100,100,37.8043637,-122.2711137,2016
Oklahoma City,United States,63.42,28.1,46.79,67.05,79.41,144.2,35.4675602,-97.5164276,2016
Orlando,United States,76.94,39.23,59.18,82.48,87.52,107.49,28.5383355,-81.3792365,2016
Pensacola,United States,69.3,29.13,50.38,71.68,59.47,138.82,30.421309,-87.2169149,2016
Philadelphia,United States,82.94,50.64,67.73,84.09,73.06,123.06,39.9525839,-75.1652215,2016
Phoenix,United States,67.93,32.05,51.03,62.73,63.45,117.75,33.4483771,-112.0740373,2016
Pittsburgh,United States,79.94,36.4,59.44,80.09,77.52,114.4,40.4406248,-79.9958864,2016
Plano,United States,73.5,39,57.25,66.76,68.76,168.86,33.0198431,-96.6988856,2016
Portland,United States,81.19,51.25,67.09,82.36,62.84,183.54,45.5154586,-122.6793461,2016
Queens,United States,83.86,56.16,70.82,82.2,87.2,98.56,40.7282239,-73.7948516,2016
Raleigh,United States,69.51,34.68,53.11,71.61,75.97,119.29,35.7795897,-78.6381787,2016
Reno,United States,60.96,29.86,46.32,52.83,81.7,135.22,39.5296329,-119.8138027,2016
Rochester,United States,66.85,30.55,49.76,65.71,67.9,166.71,43.1565779,-77.6088465,2016
Sacramento,United States,78.67,38.71,59.85,79.07,66.35,119.61,38.5815719,-121.4943996,2016
Saint Louis,United States,72.33,29.32,52.08,73.06,70.13,127.45,38.6270025,-90.1994042,2016
Saint Paul,United States,74.19,34.95,55.71,74.37,73.79,129,44.9537029,-93.0899578,2016
Saint Petersburg,United States,81.79,38.14,61.24,86.31,66.14,146.78,27.7676008,-82.6402915,2016
Salem,United States,67.2,30.2,49.78,65.55,69.46,107.26,42.51954,-70.8967155,2016
Salt Lake City,United States,67.13,33.25,51.18,66.63,76.34,152.32,40.7607793,-111.8910474,2016
San Antonio,United States,60.65,34.63,48.4,58.26,66.53,107.07,29.4241219,-98.4936282,2016
San Diego,United States,77.8,60.29,69.55,78.54,67.63,159.97,32.715738,-117.1610838,2016
San Francisco,United States,95.97,125.55,109.9,105.17,58.25,146.93,37.7749295,-122.4194155,2016
San Jose,United States,79.98,84.7,82.2,81.77,77.63,127.68,37.3382082,-121.8863286,2016
Santa Barbara,United States,83.18,72.87,78.32,85.63,91.15,105.63,34.4208305,-119.6981901,2016
Seattle,United States,84.58,64.3,75.03,85.39,78.78,173.76,47.6062095,-122.3320708,2016
Shreveport,United States,66.2,24.69,46.66,65.76,84.56,116.91,32.5251516,-93.7501789,2016
Spokane,United States,71.9,26.44,50.49,71.33,77.59,136.44,47.6587802,-117.4260465,2016
Springfield,United States,58.64,19.49,40.21,60.45,63.81,109.19,42.1014831,-72.589811,2016
Syracuse,United States,71.78,26.07,50.26,73.09,74.82,110.11,43.0481221,-76.1474244,2016
Tacoma,United States,73.76,34.17,55.12,67.49,55.21,110.62,47.2528768,-122.4442906,2016
Tampa,United States,71.66,38.6,56.09,75.08,70.56,135.39,27.950575,-82.4571776,2016
Tucson,United States,62.28,23.34,43.94,61.04,60.62,102.11,32.2226066,-110.9747108,2016
Tulsa,United States,67.27,30.82,50.11,71.62,67.05,108.17,36.1539816,-95.992775,2016
Vancouver,United States,72.63,32.89,53.92,73.27,62.63,160.79,45.6272259,-122.6727305,2016
Washington DC,United States,95.05,77.54,86.8,89.46,57.75,139.3,47.7510741,-120.7401385,2016
West Palm Beach,United States,81.45,44.94,64.26,85.18,64.92,130.92,26.7153424,-80.0533746,2016
Wichita,United States,70.95,23.05,48.39,76.39,90.81,118.76,37.6871761,-97.330053,2016
Montevideo,Uruguay,63.19,18.33,42.07,51.34,77.06,137.07,-34.9011127,-56.1645314,2016
Caracas,Venezuela,54.25,10.49,33.64,39.35,63.4,120.26,10.4805937,-66.9036063,2016
Hanoi,Vietnam,40.74,17.51,29.8,37.21,57.05,40.27,21.0277644,105.8341598,2016
Ho Chi Minh City,Vietnam,42.5,19.28,31.57,44.07,43.21,2.05,10.8230989,106.6296638,2016
Harare,Zimbabwe,52.52,15.68,35.17,41.76,21.41,24.3,-17.8251657,31.03351,2016
Tirana, Albania,38.65,9.7,24.39,32.47,30.28,32,41.3275459,19.8186982,2017
Algiers, Algeria,40.25,9.26,24.99,42.91,26.67,28.61,36.753768,3.0587561,2017
Buenos Aires, Argentina,58.82,16.23,37.85,51.48,56.77,50.94,-34.6036844,-58.3815591,2017
Yerevan, Armenia,36.07,9.77,23.12,29.56,32.57,31.13,40.1791857,44.4991029,2017
Adelaide, Australia,86.08,33.39,60.14,86.53,78.04,105.84,-34.9284989,138.6007456,2017
Brisbane, Australia,84.56,42.04,63.62,82.3,80.38,110.56,-27.4697707,153.0251235,2017
Cairns, Australia,88.52,29.28,59.35,87.81,80.18,78.43,-16.9185514,145.7780548,2017
Canberra, Australia,82.81,43.63,63.52,82.67,80.31,118.74,-35.2809368,149.1300092,2017
Darwin, Australia,89.91,45.41,68,91.03,95.6,97.2,-12.4634403,130.8456418,2017
Gold Coast, Australia,79.24,37.71,58.79,81.07,72.99,110.96,-28.016667,153.4,2017
Hobart, Australia,84.43,29.67,57.47,85.04,90.66,87.21,-42.8821377,147.3271949,2017
Melbourne, Australia,86.11,44.02,65.38,87.3,76.69,111.5,-37.8136276,144.9630576,2017
Newcastle, Australia,78.76,41.02,60.18,80.92,83.53,119.36,-32.9282712,151.7816802,2017
Perth, Australia,91.03,39.98,65.89,89.61,94.19,105.98,-31.9505269,115.8604572,2017
Sydney, Australia,91.42,66.35,79.08,88.91,75.94,102.69,-33.8688197,151.2092955,2017
Graz, Austria,74.98,22.98,49.38,72.61,62.51,96.54,47.070714,15.439504,2017
Linz, Austria,88.39,28.3,58.8,86.61,84.92,81.61,48.30694,14.28583,2017
Vienna, Austria,75.98,31.71,54.19,72.42,70.77,88.36,48.2081743,16.3738189,2017
Baku, Azerbaijan,32.77,10.98,22.04,29.42,32.71,25.32,40.4092617,49.8670924,2017
Nassau, Bahamas,109.58,37.4,74.04,103.09,99.27,43.82,25.0479835,-77.355413,2017
Manama, Bahrain,60.68,29.45,45.3,60.98,54.76,75.45,26.2285161,50.5860497,2017
Dhaka, Bangladesh,36.56,6.63,21.82,35.32,25.78,34.68,23.810332,90.4125181,2017
Minsk, Belarus,36.11,11.84,24.16,30.07,39.17,34.58,53.9045398,27.5615244,2017
Antwerp, Belgium,86.24,26.63,56.89,79.59,94.81,76.93,51.2194475,4.4024643,2017
Brussels, Belgium,82.68,34.19,58.8,74.25,90.76,86.75,50.8503463,4.3517211,2017
Gent, Belgium,85.32,25.28,55.76,77.08,90.47,82.14,51.0543422,3.7174243,2017
Leuven, Belgium,84.43,27.78,56.54,85.53,78.74,72.27,50.8798438,4.7005176,2017
Hamilton, Bermuda,148.13,117.8,133.2,145.2,152.54,93.42,32.2945837,-64.7858887,2017
Banja Luka, Bosnia And Herzegovina,39.28,6.75,23.26,33.45,27.43,42.4,44.7721811,17.191,2017
Sarajevo, Bosnia And Herzegovina,41.89,9.1,25.75,36.48,30.47,42.32,43.8562586,18.4130763,2017
Belo Horizonte, Brazil,51.63,12.91,32.56,42.08,39.34,30.85,-19.9166813,-43.9344931,2017
Brasilia, Brazil,56.14,15.55,36.15,47.68,46.08,37.65,-15.826691,-47.9218204,2017
Campinas, Brazil,57.97,13.69,36.17,46.96,44.39,55.63,-22.9329252,-47.073845,2017
Curitiba, Brazil,50.86,12.16,31.81,40.9,41.68,43.74,-25.4808762,-49.3044253,2017
Florianopolis, Brazil,52.18,14.42,33.59,41.98,42.34,34.58,-27.5948698,-48.5482195,2017
Porto Alegre, Brazil,54.54,13.87,34.52,45.96,41.83,41.31,-30.0346471,-51.2176584,2017
Recife, Brazil,55.91,12.85,34.71,50.49,41.71,36.38,-8.0522404,-34.9286096,2017
Rio De Janeiro, Brazil,58.43,22.74,40.86,47.02,46.86,33.68,-22.9068467,-43.1728965,2017
Sao Paulo, Brazil,58.07,19.93,39.29,46.75,48.63,36.68,-23.5505199,-46.6333094,2017
Plovdiv, Bulgaria,38.72,6.77,22.99,35.02,29.91,41.87,42.1354079,24.7452904,2017
Sofia, Bulgaria,41.76,11.55,26.89,37.17,32.5,51.44,42.6977082,23.3218675,2017
Varna, Bulgaria,40.18,8.13,24.4,36.77,32.69,43.91,43.2140504,27.9147333,2017
Phnom Penh, Cambodia,51.97,18.94,35.7,57.8,25.1,21.15,11.5563738,104.9282099,2017
Barrie, Canada,79.28,26.09,53.09,81.44,76.13,94.54,44.3893556,-79.6903316,2017
Calgary, Canada,76.09,31.82,54.29,76.3,70.71,117.87,51.0486151,-114.0708459,2017
Edmonton, Canada,75.51,29.15,52.68,77.57,68.17,97.38,53.544389,-113.4909267,2017
Guelph, Canada,71.22,28.42,50.15,70.26,68.49,96.81,43.5448048,-80.2481666,2017
Halifax, Canada,82.49,28.13,55.72,89.36,82.37,78.76,44.6487635,-63.5752387,2017
Hamilton, Canada,65.63,25.64,45.94,59.21,66.22,103.59,43.2557206,-79.8711024,2017
Kelowna, Canada,73.2,32.8,53.31,78.56,67.77,95.08,49.8879519,-119.4960106,2017
Kitchener, Canada,64.9,25.68,45.59,61.13,61.39,110.51,43.4516395,-80.4925337,2017
London, Canada,72.36,24.38,48.74,72.67,66.58,94.42,42.9849233,-81.2452768,2017
Mississauga, Canada,74.34,35.04,54.99,74.52,65.37,90.91,43.5890452,-79.6441198,2017
Moncton, Canada,70.55,18.32,44.83,71.92,64.2,94.85,46.0878165,-64.7782313,2017
Montreal, Canada,70.42,24.94,48.03,74.77,65.86,99.17,45.5016889,-73.567256,2017
Ottawa, Canada,71.16,31.28,51.52,68.1,73.36,110.28,45.4215296,-75.6971931,2017
Quebec City, Canada,71.94,17.78,45.27,76.11,64.92,101.72,46.8138783,-71.2079809,2017
Red Deer, Canada,80.82,25.67,53.67,79.29,78.42,91.82,52.2681118,-113.8112386,2017
Regina, Canada,73.02,27.15,50.43,76.75,65.63,97.16,50.4452112,-104.6188943,2017
Saskatoon, Canada,83.15,28.44,56.21,90.72,71.67,83.67,52.1332144,-106.6700458,2017
Surrey, Canada,71.37,29.56,50.79,75.26,65.61,74.38,49.1913466,-122.8490125,2017
Toronto, Canada,72.88,42.64,57.99,69.07,69.34,103.98,43.653226,-79.3831843,2017
Vancouver, Canada,74.67,49.07,62.06,80.43,68.51,81.79,49.2827291,-123.1207375,2017
Victoria, Canada,76.43,35.37,56.21,82.8,70.21,100.1,48.4284207,-123.3656444,2017
Waterloo, Canada,79.02,27.85,53.82,80.05,69.05,111.27,43.4642578,-80.5204096,2017
Windsor, Canada,71.18,20.12,46.04,66.44,62.45,106.15,42.3149367,-83.0363633,2017
Winnipeg, Canada,71.85,24.59,48.58,73.05,67.34,91.56,49.895136,-97.1383744,2017
Santiago, Chile,55.01,16.75,36.17,49.17,51.38,46.27,-33.4488897,-70.6692655,2017
Beijing, China,47.47,34.29,40.98,49.34,35.53,75.5,39.9041999,116.4073963,2017
Chengdu, China,38.13,11.22,24.88,36.53,27.48,69.81,30.572815,104.066801,2017
Guangzhou, China,45.28,18.6,32.14,46.84,28.8,69.15,23.12911,113.264385,2017
Shanghai, China,55.96,37.81,47.02,63.59,39.6,62.84,31.2303904,121.4737021,2017
Shenzhen, China,51.44,24.25,38.06,56.04,32.73,72.73,22.543096,114.057865,2017
Bogota, Colombia,38.18,13.71,26.14,33.56,27.58,33.71,4.7109886,-74.072092,2017
Cali, Colombia,32.41,6.99,19.89,28.66,23.43,36.33,3.4516467,-76.5319854,2017
Medellin, Colombia,34.3,9.12,21.9,31.56,25.58,29.91,6.244203,-75.5812119,2017
San Jose, Costa Rica,62.82,19.37,41.43,66.54,49.73,39.41,9.9280694,-84.0907246,2017
Osijek, Croatia,47.98,7.17,27.89,41.88,33.68,52.9,45.5549624,18.6955144,2017
Rijeka, Croatia,57.26,11.61,34.78,49.86,43.71,42.67,45.3270631,14.442176,2017
Split, Croatia,57.26,13,35.47,50.68,51.48,47.32,43.5081323,16.4401935,2017
Zagreb, Croatia,55.84,13.49,34.99,49.38,43.02,58.91,45.8150108,15.9819189,2017
Limassol, Cyprus,62.63,20.2,41.74,52.97,66.19,92.17,34.7071301,33.0226174,2017
Nicosia, Cyprus,65.45,15.34,40.78,55.82,75.69,80.35,35.1855659,33.3822764,2017
Brno, Czech Republic,47.67,16.69,32.42,43.94,32.88,65.2,49.1950602,16.6068371,2017
Olomouc, Czech Republic,43.74,12.05,28.14,42.36,29.58,70.25,49.593778,17.2508787,2017
Ostrava, Czech Republic,43.2,10.07,26.89,39.47,30.57,67.9,49.8209226,18.2625243,2017
Prague, Czech Republic,50.87,22.19,36.75,45.88,36.59,67.23,50.0755381,14.4378005,2017
Aalborg, Denmark,92.12,25.34,59.24,77.34,104.6,89.9,57.0488195,9.921747,2017
Arhus, Denmark,87.12,31.61,59.79,67.21,99.8,102.14,56.162939,10.203921,2017
Copenhagen, Denmark,97.14,49.61,73.74,78.25,113.91,93.39,55.6760968,12.5683372,2017
Santo Domingo, Dominican Republic,54.17,12.95,33.88,47.65,49.69,22.44,18.4860575,-69.9312117,2017
Cuenca, Ecuador,44.51,10.55,27.79,46.4,28.99,33.91,-2.9001285,-79.0058965,2017
Guayaquil, Ecuador,51.17,13.58,32.66,47.48,37.93,31.04,-2.1709979,-79.9223592,2017
Quito, Ecuador,49.84,14.22,32.3,50.57,37.06,29.91,-0.1806532,-78.4678382,2017
Cairo, Egypt,26.19,5.14,15.83,23.3,22.47,23.96,30.0444196,31.2357116,2017
San Salvador, El Salvador,51.19,11.77,31.78,51.25,37.85,24.94,13.6929403,-89.2181911,2017
Tallinn, Estonia,57.45,16.11,37.1,44.73,57.92,62.36,59.4369608,24.7535747,2017
Tartu, Estonia,52.4,14.43,33.71,41.83,49.1,66.49,58.377983,26.7290383,2017
Addis Ababa, Ethiopia,51.69,22.52,37.33,46.34,23.65,13.03,8.9806034,38.7577605,2017
Tampere, Finland,82.15,26.35,54.67,71.95,87.94,94.02,61.4977524,23.7609535,2017
Turku, Finland,82.07,25.07,54,73.27,86.38,105.86,60.4518126,22.2666302,2017
Lille, France,76.74,23.66,50.61,67.3,72.73,83.01,50.62925,3.057256,2017
Lyon, France,87.04,24.45,56.22,86.32,79.12,85.83,45.764043,4.835659,2017
Marseille, France,69.73,21.83,46.14,66.57,66.26,94.45,43.296482,5.36978,2017
Paris, France,89.98,45.8,68.23,87.3,88.3,89.07,48.856614,2.3522219,2017
Toulouse, France,81,24.76,53.31,78.82,79.73,102.14,43.604652,1.444209,2017
Tbilisi, Georgia,33.12,10.47,21.97,28.09,32.16,26.68,41.7151377,44.827096,2017
Aachen, Germany,69.94,22.61,46.63,57.61,64.01,118.22,50.7753455,6.0838868,2017
Berlin, Germany,72.32,30.47,51.71,61.25,59.88,96.65,52.5200066,13.404954,2017
Bonn, Germany,72.23,27.82,50.37,56.55,68.41,98.18,50.73743,7.0982068,2017
Bremen, Germany,67.22,21.38,44.65,51.25,65.82,128.83,53.0792962,8.8016936,2017
Cologne, Germany,71.65,27.81,50.07,55.35,69.27,111,50.937531,6.9602786,2017
Dresden, Germany,68.2,19.77,44.36,55.23,55.27,107.42,51.0504088,13.7372621,2017
Dusseldorf, Germany,85.92,34.53,60.62,70.52,82.69,95.7,51.2277411,6.7734556,2017
Frankfurt, Germany,84.17,36.38,60.64,74.43,79.26,98.02,50.1109221,8.6821267,2017
Hamburg, Germany,81.95,31.88,57.3,70.58,71.82,95.78,53.5510846,9.9936819,2017
Heidelberg, Germany,76.57,34.35,55.78,67.21,67.16,121.62,49.3987524,8.6724335,2017
Karlsruhe, Germany,72.62,24.63,48.99,54.69,78.94,113.65,49.0068901,8.4036527,2017
Leipzig, Germany,66.65,19.4,43.39,51.09,60.34,84.79,51.3396955,12.3730747,2017
Munich, Germany,80.31,42.45,61.67,67.7,77.84,108.18,48.1351253,11.5819805,2017
Nuremberg, Germany,70.68,23.59,47.49,55.33,70.2,120.3,49.4521018,11.0766654,2017
Stuttgart, Germany,74.52,31.54,53.36,56.92,72.24,114.35,48.7758459,9.1829321,2017
Accra, Ghana,66.86,38.4,52.85,68.33,43.66,13.25,5.6037168,-0.1869644,2017
Athens, Greece,63.17,12.8,38.37,52.05,62.51,46.02,37.9838096,23.7275388,2017
Patras, Greece,55.85,9,32.78,47.11,53.87,58.61,38.2466395,21.734574,2017
Thessaloniki, Greece,62.2,10.7,36.84,50.66,59.25,44.31,40.6400629,22.9444191,2017
Guatemala City, Guatemala,48.57,16.1,32.58,46.53,37.11,40.26,14.6349149,-90.5068824,2017
Hong Kong, Hong Kong,79.24,82.67,80.93,83.4,56.3,74.04,22.3193039,114.1693611,2017
Budapest, Hungary,48.64,16.13,32.63,39.62,36,47.17,47.497912,19.040235,2017
Debrecen, Hungary,44.35,9.3,27.09,38.71,31.82,38.08,47.5316049,21.6273124,2017
Reykjavik, Iceland,130.73,55.9,93.89,128.37,140.61,68.49,64.146582,-21.9426354,2017
Ahmedabad, India,28.95,6.65,17.97,31.25,21.09,57.06,23.022505,72.5713621,2017
Bangalore, India,30.24,9.41,19.98,32.95,19.57,86.79,12.9715987,77.5945627,2017
Bhubaneswar, India,25.24,4.57,15.06,28.87,14.71,52.38,20.2960587,85.8245398,2017
Chandigarh, India,28.94,6.31,17.79,30.74,19.97,64.7,30.7333148,76.7794179,2017
Chennai, India,28.78,7.09,18.1,31.45,18.75,71.99,13.0826802,80.2707184,2017
Coimbatore, India,24.83,5.61,15.37,26.31,15.29,47.01,11.0168445,76.9558321,2017
Delhi, India,32.66,9.87,21.44,32.63,25.61,67.67,28.7040592,77.1024902,2017
Goa, India,28.52,7.57,18.2,30.98,20.94,49.66,15.2993265,74.123996,2017
Gurgaon, India,36.05,10.3,23.37,35.31,31.73,98.51,28.4594965,77.0266383,2017
Hyderabad, India,26.87,6.2,16.69,28.95,17.66,65.47,17.385044,78.486671,2017
Indore, India,27.01,4.28,15.82,26.64,16.98,44.2,22.7195687,75.8577258,2017
Jaipur, India,27.92,4.62,16.45,29.81,16.61,65.05,26.9124336,75.7872709,2017
Kochi, India,25.4,6.18,15.93,28.26,14.41,60.04,9.9312328,76.2673041,2017
Kolkata, India,28.28,6.97,17.79,29.91,22.74,47.99,22.572646,88.363895,2017
Lucknow (Lakhnau), India,28.07,4.6,16.52,29,18.03,53.68,26.8466937,80.946166,2017
Mangalore, India,23.17,5.68,14.56,23.88,12.61,95.97,12.9141417,74.8559568,2017
Mumbai, India,32.93,22.66,27.88,35.65,23.74,61.47,19.0759837,72.8776559,2017
Mysore, India,26.23,4.52,15.54,32.03,13.28,35.53,12.2958104,76.6393805,2017
Nagpur, India,27.18,4.86,16.19,29.35,19.34,68.56,21.1458004,79.0881546,2017
Navi Mumbai, India,29.41,9.72,19.72,31.29,20.53,73.3,19.0330488,73.0296625,2017
Noida, India,32.37,6.98,19.87,33.82,22.36,85.35,28.5355161,77.3910265,2017
Pune, India,30.52,7.64,19.26,32.76,21.64,88.48,18.5204303,73.8567437,2017
Surat, India,28.47,4.5,16.67,30.17,21.43,55.55,21.1702401,72.8310607,2017
Thane, India,29.83,8.51,19.34,31.74,20.03,51.96,19.2183307,72.9780897,2017
Thiruvananthapuram, India,21.75,5.17,13.59,23.72,12.12,62.76,8.5241391,76.9366376,2017
Vadodara, India,27.31,3.85,15.76,31.5,16.06,67.23,22.3071588,73.1812187,2017
Visakhapatnam, India,25.57,5.14,15.51,28.4,16.13,53.78,17.6868159,83.2184815,2017
Bali, Indonesia,45.08,8.35,27,52.25,25.27,25.3,-8.3405389,115.0919509,2017
Bandung, Indonesia,38.74,5.67,22.46,47.12,17.24,28.7,-6.9174639,107.6191228,2017
Jakarta, Indonesia,49.44,21.74,35.8,55.49,27.68,35.1,-6.2087634,106.845599,2017
Surabaya, Indonesia,42.58,8.85,25.97,49.19,19.25,29.89,-7.2574719,112.7520883,2017
Yogyakarta, Indonesia,36.17,5.26,20.95,40.1,15.12,29.97,-7.7955798,110.3694896,2017
Tehran, Iran,42.67,20.89,31.95,40.02,32.72,36.85,35.6891975,51.3889736,2017
Baghdad, Iraq,51.41,15.08,33.52,46.83,43.7,47.2,33.315241,44.3660671,2017
Irbil, Iraq,55.36,16.03,36,46.87,56.19,39.83,36.2062933,44.0088697,2017
Cork, Ireland,81.57,36.96,59.61,68.09,86.58,88.99,51.8985143,-8.4756035,2017
Dublin, Ireland,88.49,54.65,71.83,73.25,91.98,82.09,53.3498053,-6.2603097,2017
Galway, Ireland,78.64,32.27,55.81,70.26,78.87,98.66,53.270668,-9.0567905,2017
Limerick, Ireland,91.28,24.7,58.5,90.69,80.66,80.06,52.6638367,-8.6267343,2017
Haifa, Israel,82.9,21.77,52.8,69.55,90.85,114.85,32.7940463,34.989571,2017
Jerusalem, Israel,90.73,36.74,64.15,75.74,99.24,73.51,31.768319,35.21371,2017
Ramat Gan, Israel,85.61,36.47,61.41,73.09,89.45,108.03,32.068424,34.824785,2017
Tel Aviv-Yafo, Israel,92.09,49.51,71.12,80.75,96.79,93,32.0852999,34.7817676,2017
Bergamo, Italy,78.83,20.86,50.28,67.3,88.8,73.7,45.6982642,9.6772698,2017
Florence, Italy,83.56,28.68,56.54,73.49,84.31,56.89,43.7695604,11.2558136,2017
Genoa, Italy,82.35,20.97,52.13,75.05,78,57,44.4056499,8.946256,2017
Milan, Italy,84.32,40.06,62.53,76.95,88.99,61.78,45.4642035,9.189982,2017
Naples, Italy,71.97,20.33,46.54,70.24,61.38,47.72,40.8517983,14.26812,2017
Padova, Italy,80.46,21.85,51.6,68.41,80.4,63.35,45.4064349,11.8767611,2017
Parma, Italy,78.4,22.79,51.02,64.52,93.46,72.13,44.801485,10.3279036,2017
Rome, Italy,78.6,40.21,59.7,71.13,81.95,59.82,41.9027835,12.4963655,2017
Trieste, Italy,76.2,20.74,48.9,72.81,83.25,80.27,45.6495264,13.7768182,2017
Turin, Italy,71.63,21.43,46.91,61.23,74.34,73.54,45.0703393,7.686864,2017
Osaka, Japan,79.56,24.08,52.25,80.91,44.73,94.8,34.6937249,135.5022535,2017
Tokyo, Japan,97.71,38.68,68.65,107.25,57.87,93.49,35.6761919,139.6503106,2017
Amman, Jordan,62.03,14.96,38.85,54.76,58.22,37.1,31.9453666,35.9283716,2017
Almaty, Kazakhstan,37.78,12.8,25.48,31.42,37.37,42.26,43.2220146,76.8512485,2017
Astana, Kazakhstan,39.45,16.19,27.99,33.98,41.37,36.81,51.1605227,71.4703558,2017
Nairobi, Kenya,44.15,13.66,29.13,42.8,35.64,22.27,-1.2920659,36.8219462,2017
Riga, Latvia,52.91,14.18,33.84,42.18,46.74,46.77,56.9496487,24.1051865,2017
Beirut, Lebanon,67.13,36.7,52.15,51.31,63.74,47.18,33.8937913,35.5017767,2017
Kaunas, Lithuania,51.08,10.52,31.11,41.34,44.05,47.89,54.8985207,23.9035965,2017
Vilnius, Lithuania,53.26,16.51,35.16,42.73,47.01,48.59,54.6871555,25.2796514,2017
Luxembourg, Luxembourg,87.43,54.71,71.32,76.46,97.79,104.71,49.611621,6.1319346,2017
Skopje, Macedonia,37.33,8.26,23.01,30.52,27.99,37.51,41.9960421,21.431647,2017
Johor Bahru, Malaysia,47.6,10.59,29.38,60.4,23.05,41.41,1.492659,103.7413591,2017
Kota Kinabalu, Malaysia,47.02,8.6,28.1,57.47,23.36,38.2,5.980408,116.0734568,2017
Kuala Lumpur, Malaysia,46.67,17.35,32.23,49.88,28.78,68.39,3.139003,101.686855,2017
Penang, Malaysia,48.13,10.15,29.43,56.59,25.17,61.43,5.4163935,100.3326786,2017
Selangor, Malaysia,44.81,10.11,27.72,51.21,20.33,84.16,3.0738379,101.5183469,2017
Malta, Malta,68.4,23.15,46.12,54.56,69.94,57.76,35.937496,14.375416,2017
Sliema, Malta,75.21,30.56,53.23,68.97,78.48,67.89,35.9110081,14.502904,2017
Cancun, Mexico,38.03,9.82,24.14,31.65,37.58,56.32,21.161908,-86.8515279,2017
Guadalajara, Mexico,36.49,8.53,22.72,37.24,32.25,52.24,20.6596988,-103.3496092,2017
Merida, Mexico,36.53,8.27,22.61,37.5,28.53,32.08,20.9673702,-89.5925857,2017
Mexico City, Mexico,40.77,17.64,29.38,39,36.19,54.57,19.4326077,-99.133208,2017
Monterrey, Mexico,40.8,12.23,26.73,38.81,38.31,76.85,25.6866142,-100.3161126,2017
Puerto Vallarta, Mexico,36.15,10.49,23.51,36.4,32.64,53.34,20.653407,-105.2253316,2017
Queretaro, Mexico,37.59,9.75,23.88,36.97,32.48,53.6,20.5887932,-100.3898881,2017
Tijuana, Mexico,36.87,9.25,23.27,35.46,33.83,43.13,32.5149469,-117.0382471,2017
Chisinau, Moldova,33.4,9.18,21.47,27.81,23.21,27.77,47.0104529,28.8638102,2017
Ulaanbaatar, Mongolia,44.95,17.33,31.35,43.45,29.3,29.97,47.8863988,106.9057439,2017
Podgorica, Montenegro,43.48,11.33,27.65,36.48,36.03,43.96,42.4304196,19.2593642,2017
Casablanca, Morocco,39.22,14.77,27.18,36.32,26.28,46.84,33.5731104,-7.5898434,2017
Rabat, Morocco,42.62,11.99,27.54,39.14,26.74,36.19,33.9715904,-6.8498129,2017
Kathmandu, Nepal,34.89,4.61,19.98,33.47,19.83,23.2,27.7172453,85.3239605,2017
Amsterdam, Netherlands,88.25,51.33,70.07,75.16,92.24,85.23,52.3679843,4.9035614,2017
Eindhoven, Netherlands,77.8,31.93,55.21,60.84,89.83,101.65,51.441642,5.4697225,2017
Groningen, Netherlands,74.95,27.45,51.56,64.61,83.66,90.22,53.2193835,6.5665017,2017
Maastricht, Netherlands,81.71,29.99,56.24,75.19,80.65,90.25,50.8513682,5.6909725,2017
Rotterdam, Netherlands,77.47,31.02,54.6,61.07,85.16,97.14,51.9244201,4.4777326,2017
The Hague (Den Haag), Netherlands,83.07,32.69,58.26,69.21,88.64,94.94,52.0704978,4.3006999,2017
Utrecht, Netherlands,80.7,37.98,59.67,68.94,90.5,93.44,52.0907374,5.1214201,2017
Auckland, New Zealand,90.97,44.46,68.07,86.28,77.66,90.77,-36.8484597,174.7633315,2017
Christchurch, New Zealand,85.39,31.18,58.7,83.29,80.42,76.59,-43.5320544,172.6362254,2017
Hamilton, New Zealand,90.22,25.86,58.53,84.08,86.07,122.44,-37.7870012,175.279253,2017
Wellington, New Zealand,83.98,36.74,60.72,82.91,75.43,133.6,-41.2864603,174.776236,2017
Bergen, Norway,112.66,39.58,76.68,106.84,117.45,87.68,60.3912628,5.3220544,2017
Oslo, Norway,114.78,47.99,81.9,111.48,126.2,86.67,59.9138688,10.7522454,2017
Stavanger, Norway,116.98,37.4,77.8,107.72,142.61,101,58.9699756,5.7331074,2017
Trondheim, Norway,116.02,41.27,79.22,110.1,128.03,93.68,63.4305149,10.3950528,2017
Muscat, Oman,55.4,28.56,42.19,51.84,56.91,95.7,23.58589,58.4059227,2017
Islamabad, Pakistan,34.06,9.1,21.77,31.86,23.75,32.41,33.6844202,73.0478848,2017
Karachi, Pakistan,29.11,7.48,18.46,29.16,21.44,35.72,24.8607343,67.0011364,2017
Lahore, Pakistan,32.29,6,19.35,28.98,28.36,45.85,31.5203696,74.3587473,2017
Panama City, Panama,64.58,33.31,49.18,68.4,55.38,31.18,8.9823792,-79.5198696,2017
Asuncion, Paraguay,36.46,10.55,23.71,32.08,26.31,31.67,-25.2637399,-57.575926,2017
Lima, Peru,46.2,18.5,32.56,43.24,34.7,35.35,-12.0463731,-77.042754,2017
Cebu, Philippines,43.57,12.09,28.07,45.73,24.44,21.97,10.607936,123.8857747,2017
Davao, Philippines,33.33,6.7,20.22,33.26,16.53,27.93,7.190708,125.455341,2017
Makati, Philippines,54.67,27.34,41.21,59.93,32.23,42.77,14.554729,121.0244452,2017
Manila, Philippines,42.59,19.46,31.2,40.91,27.72,39.66,14.5995124,120.9842195,2017
Quezon City, Philippines,35.03,7.21,21.33,32.87,19.64,25.99,14.6760413,121.0437003,2017
Valenzuela, Philippines,31.62,3.13,17.59,34.76,14.27,31.17,14.7010556,120.9830225,2017
Bydgoszcz, Poland,43.3,13.75,28.75,35.28,36.28,56.7,53.1234804,18.0084378,2017
Gdansk, Poland,44.92,15.1,30.24,35.33,35.43,68.69,54.3520252,18.6466384,2017
Gdynia, Poland,43.79,12.88,28.57,36.82,34.21,63.58,54.5188898,18.5305409,2017
Katowice, Poland,40.31,11.3,26.03,33.87,30.72,74.06,50.2648919,19.0237815,2017
Krakow (Cracow), Poland,44.1,16.94,30.73,36.13,35.59,67.86,50.0646501,19.9449799,2017
Lodz, Poland,42.58,11.96,27.5,34.4,33.61,59.73,51.7592485,19.4559833,2017
Lublin, Poland,41.13,14.2,27.87,33.97,31.92,50.16,51.2464536,22.5684463,2017
Poznan, Poland,43.29,14.03,28.88,37.26,35.33,62.53,52.406374,16.9251681,2017
Szczecin, Poland,42.21,11.76,27.21,34.7,32.29,55.8,53.4285438,14.5528116,2017
Warsaw, Poland,46.32,20.42,33.56,37.86,39.58,67.94,52.2296756,21.0122287,2017
Wroclaw, Poland,44.39,17.27,31.03,37.03,37.09,58.58,51.1078852,17.0385376,2017
Braga, Portugal,51.49,12.02,32.06,44.09,35.8,56.79,41.5454486,-8.426507,2017
Coimbra, Portugal,52.59,13.62,33.4,45.69,40.37,64.23,40.2033145,-8.4102573,2017
Lisbon, Portugal,55.94,25.08,40.75,46.75,48.16,55.22,38.7222524,-9.1393366,2017
Porto, Portugal,53.77,18.14,36.23,46.12,42.47,58.5,41.1579438,-8.6291053,2017
San Juan, Puerto Rico,73.99,28.12,51.4,74.15,67.26,89.06,18.4655394,-66.1057355,2017
Doha, Qatar,69.87,68.7,69.29,59.25,72.43,97.51,25.2854473,51.5310398,2017
Arad, Romania,35.12,8.38,21.96,30.37,25.3,60.36,46.1865606,21.3122677,2017
Brasov, Romania,36.88,8.56,22.93,31.56,30.7,59.73,45.6579755,25.6011977,2017
Bucharest, Romania,42.28,12.91,27.82,35.5,38.81,50.74,44.4267674,26.1025384,2017
Cluj-napoca, Romania,39.79,12.51,26.36,34.83,31.6,50.24,46.7712101,23.6236353,2017
Craiova, Romania,33.71,6,20.07,28.93,24.15,50.73,44.3301785,23.7948807,2017
Iasi, Romania,38.51,9.31,24.13,32.17,32.57,45.67,47.1584549,27.6014418,2017
Sibiu, Romania,38.79,7.97,23.62,33.21,32.16,39.29,45.7983273,24.1255826,2017
Timisoara, Romania,38.84,9.89,24.59,33.8,31.98,52.1,45.7488716,21.2086793,2017
Moscow, Russia,50.74,32.41,41.72,40.37,54.24,51.46,55.755826,37.6172999,2017
Novosibirsk, Russia,39.43,12.32,26.08,36.1,32.49,40.85,55.0083526,82.9357327,2017
Saint Petersburg, Russia,46.66,19.33,33.2,39.01,46.68,46.63,59.9342802,30.3350986,2017
Yekaterinburg, Russia,41.93,11.76,27.08,37.88,35.4,44.02,56.8389261,60.6057025,2017
Kigali, Rwanda,42.06,13.31,27.9,33.99,29.58,24.21,-1.9705786,30.1044288,2017
Ad Dammam, Saudi Arabia,52.16,12.37,32.57,46.92,32.72,124.08,26.4206828,50.0887943,2017
Al Khobar, Saudi Arabia,51.36,15.12,33.51,47.22,33.67,135.53,26.2171906,50.1971381,2017
Jeddah (Jiddah), Saudi Arabia,51.93,15.47,33.98,43.53,32.99,98.53,21.485811,39.1925048,2017
Riyadh, Saudi Arabia,50.38,16.94,33.92,44.23,34.94,113.64,24.7135517,46.6752957,2017
Belgrade, Serbia,41.52,10.99,26.49,31.44,38.05,34.83,44.786568,20.4489216,2017
Nis, Serbia,34.55,4.98,19.99,27.09,28.29,34.19,43.3209022,21.8957589,2017
Novi Sad, Serbia,37.94,6.88,22.65,30.73,27.72,35.97,45.2671352,19.8335496,2017
Singapore, Singapore,88.07,66.99,77.69,81.34,61.4,88.14,1.352083,103.819836,2017
Bratislava, Slovakia,52.35,20.35,36.59,48.1,39.34,63.59,48.1485965,17.1077478,2017
Kosice, Slovakia,50.6,15.11,33.13,46.73,30.46,51.54,48.7163857,21.2610746,2017
Ljubljana, Slovenia,64.38,18.75,41.91,55.71,52.85,62.86,46.0569465,14.5057515,2017
Cape Town, South Africa,46.95,27.06,37.15,42.24,42.68,78.12,-33.9248685,18.4240553,2017
Durban, South Africa,44.5,15.34,30.14,39.04,40.28,83.21,-29.8586804,31.0218404,2017
Johannesburg, South Africa,48.1,19.89,34.21,42.49,44.33,104.97,-26.2041028,28.0473051,2017
Pretoria, South Africa,49.89,15.06,32.74,43.49,43.4,90.54,-25.7478676,28.2292712,2017
Seoul, South Korea,85.89,33.41,60.05,107.03,47.48,84.05,37.566535,126.9779692,2017
Barcelona, Spain,68,30,49.29,58.54,64.74,70.89,41.3850639,2.1734035,2017
Bilbao, Spain,72.42,28.78,50.93,67.13,72.53,78.55,43.2630126,-2.9349852,2017
Madrid, Spain,67.57,30.6,49.37,59.52,65.45,77.35,40.4167754,-3.7037902,2017
Malaga, Spain,57.64,19.29,38.76,47.94,56.68,84.51,36.7212737,-4.4213988,2017
Palma De Mallorca, Spain,70.38,21.48,46.31,62.43,66.72,72.7,39.5696005,2.6501603,2017
Sevilla, Spain,56.49,19.96,38.5,50.08,52.62,73.77,37.3890924,-5.9844589,2017
Valencia, Spain,59.16,18.6,39.19,50.76,57.79,81.71,39.4699075,-0.3762881,2017
Zaragoza (Saragossa), Spain,64.59,14.82,40.08,56,58.6,67.12,41.6488226,-0.8890853,2017
Colombo, Sri Lanka,39.21,11.33,25.48,43.32,23.41,22.62,6.9270786,79.861243,2017
Gothenburg, Sweden,84.06,29.42,57.16,79.16,89.95,96.41,57.70887,11.97456,2017
Malmo, Sweden,79.24,27.11,53.58,76.99,83.08,106.32,55.604981,13.003822,2017
Stockholm, Sweden,91.21,42.98,67.46,87.98,91.35,88.09,59.3293235,18.0685808,2017
Uppsala, Sweden,77.78,26.74,52.65,68.2,84.22,98.13,59.8585638,17.6389267,2017
Basel, Switzerland,142.02,51.54,97.47,149.54,131.72,113.13,47.5595986,7.5885761,2017
Bern, Switzerland,135.51,45.33,91.11,145.72,122.48,101.65,46.9479739,7.4474468,2017
Geneva, Switzerland,142.12,70.25,106.73,147.13,138.96,115.2,46.2043907,6.1431577,2017
Lausanne, Switzerland,131.38,54.56,93.56,136.95,127.87,112.33,46.5196535,6.6322734,2017
Lugano, Switzerland,124.39,51.73,88.62,120.83,127.53,108.92,46.0036778,8.951052,2017
Zurich, Switzerland,149.53,66.76,108.77,163.71,140.58,126.3,47.3768866,8.541694,2017
Kaohsiung, Taiwan,60.51,10.75,36.01,72.9,24.31,114.38,22.6272784,120.3014353,2017
Taipei, Taiwan,71.4,20.2,46.19,90.68,33.04,98.3,25.0329694,121.5654177,2017
Dar Es Salaam, Tanzania,51.94,25.33,38.84,38.81,34.51,16.12,-6.792354,39.2083284,2017
Bangkok, Thailand,54.15,24.69,39.64,63.28,25.35,39.66,13.7563309,100.5017651,2017
Chiang Mai, Thailand,47.5,11.72,29.88,60.84,22.82,28.14,18.7060641,98.9817163,2017
Pattaya, Thailand,47.02,17.05,32.27,53.16,29.3,22.82,12.9235557,100.8824551,2017
Phuket, Thailand,55.08,13.9,34.81,60.64,26.92,39.72,7.9519331,98.3380884,2017
Tunis, Tunisia,29.93,6.51,18.4,28.94,20.42,32.94,36.8064948,10.1815316,2017
Ankara, Turkey,43.18,8.05,25.88,39.63,32.59,52.67,39.9333635,32.8597419,2017
Antalya, Turkey,41.27,6.96,24.38,36.99,29.47,50.86,36.8968908,30.7133233,2017
Bursa, Turkey,41.2,6.77,24.25,36.96,28.29,55.71,40.1885281,29.0609636,2017
Istanbul, Turkey,47.42,15.39,31.65,42.43,35.12,48.69,41.0082376,28.9783589,2017
Izmir, Turkey,41.69,8.53,25.36,38.49,29.08,43.99,38.423734,27.142826,2017
Kampala, Uganda,36.4,8.11,22.47,32.58,25.13,19.34,0.3475964,32.5825197,2017
Dnipropetrovsk, Ukraine,28.09,7.13,17.77,22.74,20.69,31.03,48.464717,35.046183,2017
Kharkiv, Ukraine,27.85,9.94,19.03,22.03,19.26,22.54,49.9935,36.230383,2017
Kiev, Ukraine,31.28,13.59,22.57,24.51,24.4,28.42,50.4501,30.5234,2017
Lviv, Ukraine,26.97,8.48,17.87,22.66,17.35,22.69,49.839683,24.029717,2017
Odesa, Ukraine,33.6,10.83,22.39,24.64,28.77,26.62,46.482526,30.7233095,2017
Abu Dhabi, United Arab Emirates,67.76,69.75,68.74,58.86,65.94,124.98,24.453884,54.3773438,2017
Dubai, United Arab Emirates,73.95,71.92,72.95,65.13,65.95,101.67,25.2048493,55.2707828,2017
Sharjah, United Arab Emirates,62.75,29.39,46.32,55.77,43.26,112.18,25.3462553,55.4209317,2017
Aberdeen, United Kingdom,82.82,31.71,57.66,70.07,94.86,102.77,57.149717,-2.094278,2017
Belfast, United Kingdom,68.51,22.25,45.73,63.53,76.9,96.37,54.597285,-5.93012,2017
Birmingham, United Kingdom,70.65,27.5,49.41,58.41,76.05,95.4,52.486243,-1.890401,2017
Brighton, United Kingdom,75.98,41.55,59.03,60.75,84.26,76.23,50.82253,-0.137163,2017
Bristol, United Kingdom,75.15,37.72,56.72,64.98,85.55,90.65,51.454513,-2.58791,2017
Cambridge, United Kingdom,82.43,44.13,63.57,69.24,93.5,93.6,52.205337,0.121817,2017
Cardiff, United Kingdom,70.64,25.85,48.59,67.39,70.64,95.26,51.481581,-3.17909,2017
Coventry, United Kingdom,76.71,24.87,51.18,65.03,68.85,106.76,52.406822,-1.519693,2017
Edinburgh, United Kingdom,78.57,32.71,55.99,71.7,79.39,93.93,55.953252,-3.188267,2017
Glasgow, United Kingdom,75.2,28.24,52.08,64.82,82.93,99.45,55.864237,-4.251806,2017
Leeds, United Kingdom,72.34,28.02,50.52,63.62,80.12,92.16,53.8007554,-1.5490774,2017
Liverpool, United Kingdom,69.35,23.49,46.77,53.69,80.98,98.9,53.4083714,-2.9915726,2017
London, United Kingdom,89.34,73.37,81.48,67.7,96.34,77.75,51.5073509,-0.1277583,2017
Manchester, United Kingdom,75.02,29.34,52.53,64.27,83.63,82.15,53.4807593,-2.2426305,2017
Newcastle Upon Tyne, United Kingdom,70.97,24.67,48.17,56.47,79.46,105.44,54.978252,-1.61778,2017
Norwich, United Kingdom,75.1,24.54,50.2,59.03,77.77,77.85,52.6308859,1.297355,2017
Nottingham, United Kingdom,76.43,23.73,50.48,68.24,73.62,95.28,52.9547832,-1.1581086,2017
Oxford, United Kingdom,80.09,51.18,65.86,64.02,79.84,74.67,51.7520209,-1.2577263,2017
Reading, United Kingdom,83.15,39.87,61.84,71.07,93.22,102.32,51.4542645,-0.9781303,2017
Sheffield, United Kingdom,72.06,24.02,48.41,55.84,82.37,104.15,53.381129,-1.470085,2017
Southampton, United Kingdom,72.77,31.26,52.33,61.49,76.78,95.25,50.9097004,-1.4043509,2017
Akron, United States,84.18,21.06,53.1,96.39,66.97,77.07,41.0814447,-81.5190053,2017
Albuquerque, United States,69.52,25.16,47.68,72.62,68.17,123.47,35.0843859,-106.650422,2017
Anchorage, United States,101.9,41.57,72.2,109.58,88.67,130.22,61.2180556,-149.9002778,2017
Ann Arbor, United States,71.41,42.12,56.99,72.37,62.74,152.98,42.2808256,-83.7430378,2017
Arlington, United States,93.17,67.79,80.67,93.16,85.61,117.45,38.8816208,-77.0909809,2017
Asheville, United States,81.19,36.62,59.25,95.78,69.44,129.28,35.5950581,-82.5514869,2017
Atlanta, United States,80.68,44.2,62.72,86.13,77.17,136.03,33.7489954,-84.3879824,2017
Austin, United States,78.12,51.84,65.18,81.79,77.67,122.65,30.267153,-97.7430608,2017
Bakersfield, United States,72.08,28.2,50.47,75.73,68.96,110.66,35.3732921,-119.0187125,2017
Baltimore, United States,85.65,47.62,66.93,91.75,82.5,109.07,39.2903848,-76.6121893,2017
Berkeley, United States,93.86,76.36,85.24,109.86,81.71,87.37,37.8715926,-122.272747,2017
Birmingham, United States,75.32,28.16,52.1,78.05,74.72,130.74,33.5185892,-86.8103567,2017
Boise, United States,66.58,27.45,47.31,67.43,67.32,108.08,43.6150186,-116.2023137,2017
Boston, United States,90.23,78.41,84.41,93.76,87.59,112.94,42.3600825,-71.0588801,2017
Boulder, United States,85.34,54.96,70.38,90.71,79.07,130.31,40.0149856,-105.2705456,2017
Brooklyn, United States,101.06,77.52,89.47,105.51,106.84,82.64,40.6781784,-73.9441579,2017
Buffalo, United States,76.25,29.56,53.27,76.76,74.27,93.86,42.8864468,-78.8783689,2017
Burlington, United States,87.21,41.14,64.52,97.28,82.09,95.31,44.4758825,-73.212072,2017
Charleston, United States,88.41,48.83,68.92,98.58,78.7,111.13,32.7764749,-79.9310512,2017
Charlotte, United States,76.42,40.35,58.66,80.07,75.86,99.98,35.2270869,-80.8431267,2017
Chattanooga, United States,72.94,27.14,50.39,80.35,65.89,116.33,35.0456297,-85.3096801,2017
Chicago, United States,84.39,56.81,70.81,83.89,83.68,118.59,41.8781136,-87.6297982,2017
Cincinnati, United States,73.22,32.4,53.12,72.84,70.24,108.68,39.1031182,-84.5120196,2017
Cleveland, United States,79.64,30.27,55.33,78,79.61,112.89,41.49932,-81.6943605,2017
Columbia, United States,74.6,30.07,52.67,84.2,69.25,73.57,34.0007104,-81.0348144,2017
Columbus, United States,72.48,34.29,53.68,72.85,65.5,127.65,39.9611755,-82.9987942,2017
Dallas, United States,70.47,38.6,54.78,69.25,68.82,171.08,32.7766642,-96.7969879,2017
Dayton, United States,75.86,21.14,48.92,87.31,59.68,92.25,39.7589478,-84.1916069,2017
Denver, United States,81.71,54.11,68.12,84.5,79.32,129.35,39.7392358,-104.990251,2017
Des Moines, United States,77.79,31.89,55.19,92.55,65.1,84.89,41.5868353,-93.6249593,2017
Detroit, United States,79.5,36.81,58.48,82.7,67.57,124.39,42.331427,-83.0457538,2017
Durham, United States,74.94,35.04,55.3,82.87,65.67,150.01,35.9940329,-78.898619,2017
Eugene, United States,80.22,31.42,56.19,94.92,67.22,108.26,44.0520691,-123.0867536,2017
Fayetteville, United States,79.07,22.93,51.43,88.7,67.54,80.29,35.0526641,-78.8783585,2017
Fort Collins, United States,82.53,40.78,61.98,95.23,71.33,63.35,40.5852602,-105.084423,2017
Fort Lauderdale, United States,77.71,52.75,65.42,79.97,78.35,102.52,26.1224386,-80.1373174,2017
Fort Myers, United States,72.08,30.63,51.67,79.19,64.03,71.17,26.640628,-81.8723084,2017
Fort Worth, United States,73.02,35.36,54.48,75.47,67.27,138.85,32.7554883,-97.3307658,2017
Fresno, United States,77.15,31.72,54.78,78.07,77.2,131.93,36.7377981,-119.7871247,2017
Grand Rapids, United States,78.54,32.68,55.96,82.13,72.53,122.5,42.9633599,-85.6680863,2017
Greensboro, United States,78.98,25.26,52.53,90.06,61.02,133.43,36.0726354,-79.7919754,2017
Greenville, United States,75.75,35.94,56.15,85.7,67.11,116.46,34.8526176,-82.3940104,2017
Harrisburg, United States,77.53,26.7,52.5,88.04,66.89,116.75,40.2731911,-76.8867008,2017
Hartford, United States,83.7,42.97,63.65,86.3,86.72,101.18,41.7658043,-72.6733723,2017
Honolulu, United States,103.32,64.98,84.44,121.83,88.49,84.93,21.3069444,-157.8583333,2017
Houston, United States,74.95,44.18,59.8,79.6,72.1,147.15,29.7604267,-95.3698028,2017
Huntsville, United States,66.34,28.5,47.71,70.03,63.59,132.14,34.7303688,-86.5861037,2017
Indianapolis, United States,80.87,30.57,56.1,86.66,76.61,85.5,39.768403,-86.158068,2017
Irvine, United States,82.79,65.6,74.33,88.68,79,126.76,33.6845673,-117.8265049,2017
Jacksonville, United States,79.48,33.71,56.95,86.89,72.29,95.46,30.3321838,-81.655651,2017
Jersey City, United States,80.7,68.03,74.46,81.67,78.18,140.69,40.7177545,-74.0431435,2017
Kansas City, United States,69.9,29.32,49.92,70.8,64.51,134.67,39.0997265,-94.5785667,2017
Knoxville, United States,66.87,29.87,48.65,69.13,65.7,129.1,35.9606384,-83.9207392,2017
Las Vegas, United States,74.03,30.85,52.77,70.97,77.69,137.36,36.1699412,-115.1398296,2017
Lexington, United States,73.01,27.86,50.78,77.85,64.7,104.85,38.0405837,-84.5037164,2017
Little Rock, United States,78.2,25.58,52.29,90.26,66.91,111.23,34.7464809,-92.2895948,2017
Los Angeles, United States,82.11,67.55,74.94,82.06,84.13,118.09,34.0522342,-118.2436849,2017
Louisville, United States,74.89,28.35,51.97,87.46,64.14,106.05,38.2526647,-85.7584557,2017
Madison, United States,70.79,37.22,54.26,70.54,69.64,120.06,43.0730517,-89.4012302,2017
Melbourne, United States,87.34,30.73,59.47,104.43,81.84,136.52,28.0836269,-80.6081089,2017
Memphis, United States,78.8,28.82,54.19,84.63,73.14,125.81,35.1495343,-90.0489801,2017
Miami, United States,90.68,63.46,77.27,93.95,98.47,89.18,25.7616798,-80.1917902,2017
Milwaukee, United States,79.48,33.67,56.93,81.2,75.73,127.22,43.0389025,-87.9064736,2017
Minneapolis, United States,85.38,43.62,64.81,96.04,78.89,115.28,44.977753,-93.2650108,2017
Mobile, United States,69.53,24.51,47.37,74.84,66.25,123.62,30.6953657,-88.0398912,2017
Nashville, United States,78.28,46.63,62.69,83.87,74.48,116.83,36.1626638,-86.7816016,2017
New Haven, United States,94.1,47.09,70.95,112.78,91.54,114.53,41.308274,-72.9278835,2017
New Orleans, United States,82.33,41.07,62.01,85.51,84.97,101.33,29.9510658,-90.0715323,2017
New York, United States,100,100,100,100,100,100,40.7127753,-74.0059728,2017
Newark, United States,75.82,37.05,56.73,68.82,85.79,96.8,40.735657,-74.1723667,2017
Oakland, United States,90.73,78.69,84.8,97.63,84.79,91.15,37.8043637,-122.2711137,2017
Oklahoma City, United States,67.35,26.8,47.39,72.88,61.47,127.31,35.4675602,-97.5164276,2017
Orlando, United States,81.87,40.14,61.32,89.93,77.83,117.11,28.5383355,-81.3792365,2017
Pensacola, United States,70.9,28,49.78,75.85,64.15,116.64,30.421309,-87.2169149,2017
Philadelphia, United States,87.74,49.34,68.83,91.14,80.92,115.92,39.9525839,-75.1652215,2017
Phoenix, United States,71.45,32.02,52.04,67.59,77.01,122.68,33.4483771,-112.0740373,2017
Pittsburgh, United States,82.25,39.28,61.09,84.36,74.44,131.51,40.4406248,-79.9958864,2017
Plano, United States,78.55,40.22,59.68,78.1,66.46,149.09,33.0198431,-96.6988856,2017
Portland, United States,67.06,81.72,51.94,85.72,71.25,122.71,45.5154586,-122.6793461,2017
Queens, United States,84.7,63.98,74.5,80.22,88.5,98.73,40.7282239,-73.7948516,2017
Raleigh, United States,75.81,38.07,57.23,87.07,71.67,137.76,35.7795897,-78.6381787,2017
Reno, United States,62.75,31.98,47.6,55.85,67.85,97.3,39.5296329,-119.8138027,2017
Rochester, United States,74.12,29.85,52.32,80.49,73.53,121.55,43.1565779,-77.6088465,2017
Sacramento, United States,82.76,43.53,63.45,87.64,75.56,121.89,38.5815719,-121.4943996,2017
Saint Louis, United States,75.57,30.21,53.24,79.36,71.65,138.13,38.6270025,-90.1994042,2017
Saint Paul, United States,81.64,38.14,60.22,88.63,73.01,88.16,44.9537029,-93.0899578,2017
Saint Petersburg, United States,78.32,41.09,59.99,82.17,79.2,133.67,27.7676008,-82.6402915,2017
Salem, United States,73.33,29.8,51.89,76.12,73.66,90.58,42.51954,-70.8967155,2017
Salt Lake City, United States,70.3,36.53,53.67,70.54,71.5,137.74,40.7607793,-111.8910474,2017
San Antonio, United States,64.53,35.59,50.28,64.35,64.45,151.28,29.4241219,-98.4936282,2017
San Diego, United States,79.89,60.79,70.49,83.15,78.95,129.95,32.715738,-117.1610838,2017
San Francisco, United States,101.94,119.63,110.65,116.73,93.57,104.4,37.7749295,-122.4194155,2017
San Jose, United States,85.13,83.63,84.39,90.68,84.04,140.74,37.3382082,-121.8863286,2017
Santa Barbara, United States,81.14,70.52,75.91,80.42,86.66,176.22,34.4208305,-119.6981901,2017
Seattle, United States,93.31,65.46,79.6,98.17,86.72,121.29,47.6062095,-122.3320708,2017
Shreveport, United States,75.01,23.88,49.83,83.48,67.61,66.12,32.5251516,-93.7501789,2017
Spokane, United States,73.72,27.02,50.73,77.5,67.93,108.18,47.6587802,-117.4260465,2017
Springfield, United States,63.53,18.71,41.46,70.79,59.02,75,42.1014831,-72.589811,2017
Syracuse, United States,76.96,28.49,53.09,81.82,65.68,84.89,43.0481221,-76.1474244,2017
Tacoma, United States,86.78,36.99,62.26,91.42,75.32,110.13,47.2528768,-122.4442906,2017
Tampa, United States,78.92,44.51,61.98,85.17,80.01,102.73,27.950575,-82.4571776,2017
Tucson, United States,65.37,23.96,44.98,66.41,65.65,133.7,32.2226066,-110.9747108,2017
Tulsa, United States,73.08,29.11,51.43,79.06,65.4,108.64,36.1539816,-95.992775,2017
Vancouver, United States,71.41,32.38,52.19,69.54,67.33,114.44,45.6272259,-122.6727305,2017
Washington, United States,95.96,74.32,85.31,96.97,90.78,107.86,47.7510741,-120.7401385,2017
West Palm Beach, United States,79.61,44.16,62.16,85.54,78.17,108.9,26.7153424,-80.0533746,2017
Wichita, United States,72.56,24.87,49.08,78.53,68.65,94.16,37.6871761,-97.330053,2017
Montevideo, Uruguay,72.91,20.09,46.9,58.79,74.81,29.29,-34.9011127,-56.1645314,2017
Caracas, Venezuela,36.75,9.74,23.45,39.15,34.73,2.96,10.4805937,-66.9036063,2017
Hanoi, Vietnam,44.77,15.45,30.33,43.69,24.2,19.51,21.0277644,105.8341598,2017
Ho Chi Minh City, Vietnam,44.06,17.54,31,49.01,21.11,33.18,10.8230989,106.6296638,2017
Harare, Zimbabwe,54.52,14.98,35.05,48.17,40.49,21.74,-17.8251657,31.03351,2017
Tirana, Albania,39.33,9.96,25.17,31.79,32.05,38.05,41.3275459,19.8186982,2018
Algiers, Algeria,37.13,8.61,23.38,38.43,22.86,33.38,36.753768,3.0587561,2018
Buenos Aires, Argentina,56.05,15.58,36.53,48.19,56.51,60.03,-34.6036844,-58.3815591,2018
Yerevan, Armenia,34.12,9.37,22.18,27.73,31.77,32.52,40.1791857,44.4991029,2018
Adelaide, Australia,86.02,36.56,62.17,82.05,81.67,113.86,-34.9284989,138.6007456,2018
Brisbane, Australia,82.17,43.31,63.43,75.42,81.39,130.41,-27.4697707,153.0251235,2018
Cairns, Australia,84.98,30.59,58.75,84.5,74.96,118.05,-16.9185514,145.7780548,2018
Canberra, Australia,80.9,45.03,63.6,77.06,79.23,139.38,-35.2809368,149.1300092,2018
Darwin, Australia,84.98,46.52,66.43,82.29,91.79,118.09,-12.4634403,130.8456418,2018
Gold Coast, Australia,74.89,38.76,57.46,74.88,72.35,124.98,-28.016667,153.4,2018
Hobart, Australia,82.88,31.46,58.08,81.1,88.26,99.4,-42.8821377,147.3271949,2018
Melbourne, Australia,85.15,44.81,65.7,82.11,77.29,127.15,-37.8136276,144.9630576,2018
Newcastle, Australia,77.12,43.45,60.88,76.5,84.01,134.62,-32.9282712,151.7816802,2018
Perth, Australia,86.24,40.5,64.18,80.79,90.63,130.38,-31.9505269,115.8604572,2018
Sydney, Australia,90.77,68.43,80,85.02,77.09,118.81,-33.8688197,151.2092955,2018
Graz, Austria,80.59,24.94,53.75,78.18,65.21,106.41,47.070714,15.439504,2018
Linz, Austria,89.33,29.43,60.44,84.03,88.05,95.13,48.30694,14.28583,2018
Vienna, Austria,78.64,35.04,57.61,73.8,73.39,98.88,48.2081743,16.3738189,2018
Baku, Azerbaijan,31.31,9.65,20.86,27.9,32.31,29.19,40.4092617,49.8670924,2018
Nassau, Bahamas,99.73,40.45,71.14,85.34,104.17,58.69,25.0479835,-77.355413,2018
Manama, Bahrain,59,30.65,45.33,57.63,54.83,67.56,26.2285161,50.5860497,2018
Dhaka, Bangladesh,33.64,6.83,20.71,31.89,23.54,37.72,23.810332,90.4125181,2018
Minsk, Belarus,35.3,11.25,23.71,28.55,38.12,43.77,53.9045398,27.5615244,2018
Antwerp, Belgium,88.2,28.06,59.19,79.12,101.67,90.18,51.2194475,4.4024643,2018
Brussels, Belgium,83.65,35.76,60.55,72.55,96.1,104.35,50.8503463,4.3517211,2018
Gent, Belgium,85.16,26.92,57.07,72.2,94.01,96.27,51.0543422,3.7174243,2018
Leuven, Belgium,85.31,29.48,58.38,79.81,86.88,92.44,50.8798438,4.7005176,2018
Hamilton, Bermuda,145.43,110.87,128.76,143.47,158.75,112.26,32.2945837,-64.7858887,2018
Banja Luka, Bosnia And Herzegovina,39.85,7.77,24.38,32.73,28.97,51.24,44.7721811,17.191,2018
Sarajevo, Bosnia And Herzegovina,42.5,10.13,26.89,35.37,31.5,48.89,43.8562586,18.4130763,2018
Belo Horizonte, Brazil,50.41,12.56,32.15,37.82,41.12,35.32,-19.9166813,-43.9344931,2018
Brasilia, Brazil,53.84,16.73,35.94,44.65,47.74,49.33,-15.826691,-47.9218204,2018
Campinas, Brazil,57.21,14.1,36.42,43.15,48.2,59.53,-22.9329252,-47.073845,2018
Curitiba, Brazil,49.43,12.63,31.68,37,41.47,46.26,-25.4808762,-49.3044253,2018
Florianopolis, Brazil,50.4,15.08,33.37,39.36,42.08,39.69,-27.5948698,-48.5482195,2018
Porto Alegre, Brazil,53.88,14.79,35.03,42.32,42.19,46.35,-30.0346471,-51.2176584,2018
Recife, Brazil,52.22,12.23,32.93,41.22,41.58,39.68,-8.0522404,-34.9286096,2018
Rio De Janeiro, Brazil,57.14,21.61,40,42.19,48.58,39.15,-22.9068467,-43.1728965,2018
Sao Paulo, Brazil,56.83,21.02,39.56,43.58,48.59,40.03,-23.5505199,-46.6333094,2018
Plovdiv, Bulgaria,40.29,7.65,24.55,35.49,33.1,54.98,42.1354079,24.7452904,2018
Sofia, Bulgaria,43.11,12.96,28.57,37.06,34.44,60.66,42.6977082,23.3218675,2018
Varna, Bulgaria,42.26,8.71,26.08,37.66,34.85,48.43,43.2140504,27.9147333,2018
Phnom Penh, Cambodia,49.24,17.42,33.89,53.68,24.62,26.41,11.5563738,104.9282099,2018
Barrie, Canada,79.18,28.03,54.51,79.85,76.95,127.57,44.3893556,-79.6903316,2018
Calgary, Canada,76.44,31.37,54.7,72.97,75.23,146.39,51.0486151,-114.0708459,2018
Edmonton, Canada,76.01,31.61,54.6,74.26,73.66,131.93,53.544389,-113.4909267,2018
Guelph, Canada,72.93,28.86,51.68,68.86,80.08,114.41,43.5448048,-80.2481666,2018
Halifax, Canada,82.03,29.33,56.61,88.57,75.91,95.7,44.6487635,-63.5752387,2018
Hamilton, Canada,65.26,27.6,47.1,60.77,65.83,122.71,43.2557206,-79.8711024,2018
Kelowna, Canada,74.78,34.84,55.52,77.54,68.9,109.75,49.8879519,-119.4960106,2018
Kitchener, Canada,63.9,27.36,46.28,58.85,59.89,124.25,43.4516395,-80.4925337,2018
London, Canada,69.39,24.58,47.78,65.97,66.17,105.79,42.9849233,-81.2452768,2018
Mississauga, Canada,72.54,36.65,55.23,68.46,67.15,106.67,43.5890452,-79.6441198,2018
Moncton, Canada,71.79,18.63,46.15,70.92,66.98,88.06,46.0878165,-64.7782313,2018
Montreal, Canada,69.18,26.68,48.69,68.65,67.17,120.29,45.5016889,-73.567256,2018
Ottawa, Canada,69.91,31.76,51.51,64.16,71.95,145.32,45.4215296,-75.6971931,2018
Quebec City, Canada,71.21,17.97,45.53,71.69,65.29,118.31,46.8138783,-71.2079809,2018
Red Deer, Canada,76.15,25.51,51.73,69.85,74.21,136.55,52.2681118,-113.8112386,2018
Regina, Canada,72.85,28.93,51.67,73.25,66.3,109.12,50.4452112,-104.6188943,2018
Saskatoon, Canada,81.02,29.7,56.27,82.39,72.78,99.63,52.1332144,-106.6700458,2018
Surrey, Canada,67.37,33.36,50.97,65.23,61.6,93.78,49.1913466,-122.8490125,2018
Toronto, Canada,75.22,46.94,61.58,70.65,71.58,106.83,43.653226,-79.3831843,2018
Vancouver, Canada,75.59,53.5,64.94,78.26,70.12,96.77,49.2827291,-123.1207375,2018
Victoria, Canada,75.47,40,58.36,79.13,70.56,112.52,48.4284207,-123.3656444,2018
Waterloo, Canada,72.86,29.64,52.01,70.36,70.2,120.38,43.4642578,-80.5204096,2018
Windsor, Canada,72,21.38,47.59,63.4,67.16,118.85,42.3149367,-83.0363633,2018
Winnipeg, Canada,71.22,24.91,48.89,69.49,67.33,114.61,49.895136,-97.1383744,2018
Santiago, Chile,56.85,17.85,38.04,48.15,55.32,50.65,-33.4488897,-70.6692655,2018
Beijing, China,46.09,33.51,40.02,44.92,35.14,76.61,39.9041999,116.4073963,2018
Chengdu, China,39.26,12.73,26.47,38.41,28.42,77.03,30.572815,104.066801,2018
Guangzhou, China,43.5,20.93,32.61,44.04,27.37,79.47,23.12911,113.264385,2018
Shanghai, China,56.16,41.95,49.3,61.7,40.74,66.16,31.2303904,121.4737021,2018
Shenzhen, China,49.65,25.37,37.94,53.67,31.34,83.96,22.543096,114.057865,2018
Bogota, Colombia,38.99,13.86,26.87,31.74,29.55,42.03,4.7109886,-74.072092,2018
Cali, Colombia,33.04,7.44,20.69,28.79,23.76,39.71,3.4516467,-76.5319854,2018
Medellin, Colombia,35.87,12.33,24.52,31.73,27.61,29.33,6.244203,-75.5812119,2018
San Jose, Costa Rica,60.46,19.28,40.6,60.98,49.47,48.89,9.9280694,-84.0907246,2018
Osijek, Croatia,49.04,8.14,29.32,40.85,36.36,58.44,45.5549624,18.6955144,2018
Rijeka, Croatia,58.54,12.29,36.24,49.63,46.7,51.41,45.3270631,14.442176,2018
Split, Croatia,59.05,13.74,37.2,50.46,55.16,53.22,43.5081323,16.4401935,2018
Zagreb, Croatia,58,15.39,37.45,49.52,46.65,64.19,45.8150108,15.9819189,2018
Limassol, Cyprus,63.52,24.22,44.57,52.24,66.53,93.12,34.7071301,33.0226174,2018
Nicosia, Cyprus,66.23,17.22,42.59,53.67,78.46,90.59,35.1855659,33.3822764,2018
Brno, Czech Republic,50.29,19.26,35.32,44.77,34.98,73.86,49.1950602,16.6068371,2018
Olomouc, Czech Republic,45.99,13.01,30.08,43.34,31.6,79.5,49.593778,17.2508787,2018
Ostrava, Czech Republic,44.78,10.73,28.36,38.89,32.47,78.36,49.8209226,18.2625243,2018
Prague, Czech Republic,53.84,25.06,39.96,47.04,40.31,77.13,50.0755381,14.4378005,2018
Aalborg, Denmark,91.17,26.81,60.13,73.79,101.14,106.35,57.0488195,9.921747,2018
Arhus, Denmark,91.9,34.82,64.37,71.5,102.82,109.47,56.162939,10.203921,2018
Copenhagen, Denmark,97.62,50.66,74.97,77.53,121.23,113.31,55.6760968,12.5683372,2018
Santo Domingo, Dominican Republic,49.1,12.49,31.44,42.25,46.38,28.77,18.4860575,-69.9312117,2018
Cuenca, Ecuador,38.41,10.38,24.89,37.19,26.71,43.44,-2.9001285,-79.0058965,2018
Guayaquil, Ecuador,49.49,13.57,32.17,44.21,36.59,36.14,-2.1709979,-79.9223592,2018
Quito, Ecuador,48.84,14.05,32.06,47.67,36.41,34.37,-0.1806532,-78.4678382,2018
Cairo, Egypt,26.49,5.43,16.33,23.23,22.55,25.27,30.0444196,31.2357116,2018
San Salvador, El Salvador,50.29,12.78,32.2,51.28,37.29,28.62,13.6929403,-89.2181911,2018
Tallinn, Estonia,60.51,17.66,39.84,45.31,61.04,74.02,59.4369608,24.7535747,2018
Tartu, Estonia,55.49,14.44,35.69,42.41,55.7,75.23,58.377983,26.7290383,2018
Addis Ababa, Ethiopia,50.3,24.39,37.8,43.58,22.5,13.57,8.9806034,38.7577605,2018
Tampere, Finland,87.2,28.89,59.08,73.89,96.76,111.28,61.4977524,23.7609535,2018
Turku, Finland,82.18,25.55,54.87,69.79,88.89,125.14,60.4518126,22.2666302,2018
Lille, France,78.34,24.7,52.47,65.77,74.43,89.56,50.62925,3.057256,2018
Lyon, France,84.47,28.04,57.26,77.74,79.13,101.17,45.764043,4.835659,2018
Marseille, France,69.66,23.92,47.6,61.91,69.58,104.22,43.296482,5.36978,2018
Paris, France,92.87,50.3,72.34,87.29,91.77,97.62,48.856614,2.3522219,2018
Toulouse, France,82.85,24.97,54.94,77.86,82.38,113.77,43.604652,1.444209,2018
Tbilisi, Georgia,29.73,10.6,20.5,24.65,29.18,35.61,41.7151377,44.827096,2018
Aachen, Germany,71.81,24.48,48.99,57.78,64.67,128.79,50.7753455,6.0838868,2018
Berlin, Germany,74.32,33.54,54.65,60.74,65.57,114.09,52.5200066,13.404954,2018
Bonn, Germany,73.61,29.24,52.21,55,70.68,118.12,50.73743,7.0982068,2018
Bremen, Germany,73.41,22.22,48.72,59.15,70.25,131.14,53.0792962,8.8016936,2018
Cologne, Germany,74.02,29.75,52.67,55.97,73.95,131.06,50.937531,6.9602786,2018
Dresden, Germany,71.22,22.95,47.94,56.07,59.77,105.93,51.0504088,13.7372621,2018
Dusseldorf, Germany,82.48,36.34,60.23,65.69,74.97,114.5,51.2277411,6.7734556,2018
Frankfurt, Germany,81.65,37.59,60.4,66.85,81.18,142.76,50.1109221,8.6821267,2018
Hamburg, Germany,80.75,33.61,58.02,64.85,77.19,116.06,53.5510846,9.9936819,2018
Heidelberg, Germany,77.3,37.21,57.96,61.01,75.28,133.23,49.3987524,8.6724335,2018
Karlsruhe, Germany,75.8,23.89,50.76,57.26,80.6,136.82,49.0068901,8.4036527,2018
Leipzig, Germany,72.4,20.19,47.22,54.51,64.82,91.69,51.3396955,12.3730747,2018
Munich, Germany,84.78,46.46,66.3,72.97,82.46,118.19,48.1351253,11.5819805,2018
Nuremberg, Germany,72.57,25.08,49.67,55.83,71.58,127.52,49.4521018,11.0766654,2018
Stuttgart, Germany,74.53,34.86,55.4,55.57,72.07,134.02,48.7758459,9.1829321,2018
Accra, Ghana,61.93,32.3,47.64,60.07,40.1,14.07,5.6037168,-0.1869644,2018
Athens, Greece,64.67,13.97,40.22,51.34,64.82,52.86,37.9838096,23.7275388,2018
Patras, Greece,57.35,9.41,34.23,46.44,53.51,64.63,38.2466395,21.734574,2018
Thessaloniki, Greece,64.94,11.57,39.2,52.32,61.77,48.72,40.6400629,22.9444191,2018
Guatemala City, Guatemala,46.97,15.52,31.8,43.64,37.17,41.41,14.6349149,-90.5068824,2018
Hong Kong, Hong Kong,78.72,79.54,79.12,83.47,56.17,82.86,22.3193039,114.1693611,2018
Budapest, Hungary,51,18.08,35.12,40.71,40.43,55.54,47.497912,19.040235,2018
Debrecen, Hungary,44.92,10.34,28.24,37.81,33.04,48.52,47.5316049,21.6273124,2018
Reykjavik, Iceland,123.78,57.25,91.7,118.15,133.19,88.95,64.146582,-21.9426354,2018
Ahmedabad, India,28.67,6.24,17.85,31.42,20.13,73.59,23.022505,72.5713621,2018
Bangalore, India,30.34,9.76,20.41,31.47,20.23,100.26,12.9715987,77.5945627,2018
Bhubaneswar, India,24.89,4.68,15.14,28.22,14.91,57.56,20.2960587,85.8245398,2018
Chandigarh, India,29.04,6.47,18.15,29.4,20.18,68.83,30.7333148,76.7794179,2018
Chennai, India,28.42,7.12,18.14,31.17,18.26,72.34,13.0826802,80.2707184,2018
Coimbatore, India,24.61,5.35,15.32,25.23,15.21,53.23,11.0168445,76.9558321,2018
Delhi, India,32.14,9.74,21.34,30.67,27.54,78.33,28.7040592,77.1024902,2018
Goa, India,28.3,8.27,18.64,29.8,22.96,54.55,15.2993265,74.123996,2018
Gurgaon, India,34.9,10.96,23.36,32.59,30.88,110.97,28.4594965,77.0266383,2018
Hyderabad, India,26.92,6.89,17.26,27.6,18.93,80.9,17.385044,78.486671,2018
Indore, India,28.06,4.66,16.78,27.74,17.77,50.42,22.7195687,75.8577258,2018
Jaipur, India,27.11,5.19,16.54,27.65,18.48,76.5,26.9124336,75.7872709,2018
Kochi, India,24.65,6.31,15.8,26.93,13.94,77.7,9.9312328,76.2673041,2018
Kolkata, India,27.99,7.77,18.24,28.53,23.18,56.3,22.572646,88.363895,2018
Lucknow (Lakhnau), India,27.55,4.9,16.62,27.25,18.76,76.1,26.8466937,80.946166,2018
Mangalore, India,25.46,5.7,15.93,26.85,16.04,94.53,12.9141417,74.8559568,2018
Mumbai, India,32.59,22.72,27.83,32.94,26.68,73.49,19.0759837,72.8776559,2018
Mysore, India,25.2,4.01,14.98,29.39,13.31,42.49,12.2958104,76.6393805,2018
Nagpur, India,26.23,4.96,15.97,26.55,18.73,95.19,21.1458004,79.0881546,2018
Navi Mumbai, India,23.44,6.25,15.15,24.02,14.14,111.99,19.0330488,73.0296625,2018
Noida, India,32.37,6.56,19.92,33.12,24.04,95.95,28.5355161,77.3910265,2018
Pune, India,29.66,7.95,19.19,30.75,21.4,99.44,18.5204303,73.8567437,2018
Surat, India,28.66,4.69,17.1,31.97,19.84,57.84,21.1702401,72.8310607,2018
Thane, India,29.82,9.3,19.92,31.07,21.18,70.55,19.2183307,72.9780897,2018
Thiruvananthapuram, India,20.86,5.1,13.26,21.98,12.06,66.25,8.5241391,76.9366376,2018
Vadodara, India,25.59,4.01,15.18,27.85,16.02,80.63,22.3071588,73.1812187,2018
Visakhapatnam, India,24.66,4.85,15.11,25.83,18.07,63.97,17.6868159,83.2184815,2018
Bali, Indonesia,43.73,8.12,26.56,49.07,25.29,29.2,-8.3405389,115.0919509,2018
Bandung, Indonesia,37.68,6.05,22.42,43.19,17.12,33.9,-6.9174639,107.6191228,2018
Jakarta, Indonesia,46.47,19.34,33.39,49.49,26.34,34.8,-6.2087634,106.845599,2018
Surabaya, Indonesia,39.24,8.6,24.46,43.32,18.67,37.58,-7.2574719,112.7520883,2018
Yogyakarta, Indonesia,40.01,6.09,23.65,45.78,14.56,30.25,-7.7955798,110.3694896,2018
Tehran, Iran,37.8,19.93,29.18,34.45,30.9,43.28,35.6891975,51.3889736,2018
Baghdad, Iraq,46.05,14.76,30.96,40.35,42.03,52.05,33.315241,44.3660671,2018
Irbil, Iraq,49.08,13.91,32.12,41.62,43.07,49.2,36.2062933,44.0088697,2018
Cork, Ireland,82.89,39.97,62.19,67.32,91.87,105.57,51.8985143,-8.4756035,2018
Dublin, Ireland,89.92,62.13,76.52,73.62,95.64,88.11,53.3498053,-6.2603097,2018
Galway, Ireland,80.22,34.58,58.21,70.9,81.75,100.11,53.270668,-9.0567905,2018
Limerick, Ireland,92.73,27.71,61.37,87.15,82.93,93.93,52.6638367,-8.6267343,2018
Haifa, Israel,81.81,20.68,52.33,66.6,91.38,120.61,32.7940463,34.989571,2018
Jerusalem, Israel,89.62,38.43,64.93,74.2,96.35,84.17,31.768319,35.21371,2018
Ramat Gan, Israel,82.84,36.93,60.7,67.32,89.36,112.25,32.068424,34.824785,2018
Tel Aviv-Yafo, Israel,90.36,51.55,71.65,76.9,97.21,101.36,32.0852999,34.7817676,2018
Bergamo, Italy,77.71,22.05,50.87,64.43,91.76,89.37,45.6982642,9.6772698,2018
Florence, Italy,86.9,31.81,60.34,76.28,87.67,66.09,43.7695604,11.2558136,2018
Genoa, Italy,85.04,21.49,54.39,74.03,83.87,71.66,44.4056499,8.946256,2018
Milan, Italy,85.1,43.65,65.11,75.56,92.27,71.94,45.4642035,9.189982,2018
Naples, Italy,71.14,19.85,46.41,66.45,63.1,59.99,40.8517983,14.26812,2018
Padova, Italy,81.77,23.89,53.85,67.49,78.91,77.42,45.4064349,11.8767611,2018
Parma, Italy,80.69,25.04,53.85,71.96,87.4,84.79,44.801485,10.3279036,2018
Rome, Italy,78.8,40.24,60.2,68.34,85.32,72.78,41.9027835,12.4963655,2018
Trieste, Italy,77.97,21.54,50.76,72.67,80.97,90.05,45.6495264,13.7768182,2018
Turin, Italy,74.94,23.25,50.01,61.62,76.26,85.62,45.0703393,7.686864,2018
Osaka, Japan,78.5,23.88,52.16,79.2,45.06,109.62,34.6937249,135.5022535,2018
Tokyo, Japan,93.81,37.07,66.45,99.67,58.93,106.42,35.6761919,139.6503106,2018
Amman, Jordan,58.47,14.58,37.3,49.55,55.56,41.83,31.9453666,35.9283716,2018
Almaty, Kazakhstan,36.05,11.72,24.31,28.66,35.51,46.81,43.2220146,76.8512485,2018
Astana, Kazakhstan,37.51,14.88,26.6,32.67,38.79,40.49,51.1605227,71.4703558,2018
Nairobi, Kenya,42.06,12.27,27.7,40.4,34.31,27.87,-1.2920659,36.8219462,2018
Riga, Latvia,54.87,15.23,35.75,42.56,51.15,53.77,56.9496487,24.1051865,2018
Beirut, Lebanon,65.03,34.98,50.54,47.46,66.58,52.68,33.8937913,35.5017767,2018
Kaunas, Lithuania,52.56,12.38,33.19,41.09,45.84,57.97,54.8985207,23.9035965,2018
Vilnius, Lithuania,54.26,17.9,36.72,42.58,49.97,56.97,54.6871555,25.2796514,2018
Luxembourg, Luxembourg,95.37,61.59,79.08,82.71,109.61,127.42,49.611621,6.1319346,2018
Skopje, Macedonia,38.51,9.26,24.4,30.7,29.14,41.99,41.9960421,21.431647,2018
Johor Bahru, Malaysia,50.98,11.96,32.16,63.42,25.08,42.93,1.492659,103.7413591,2018
Kota Kinabalu, Malaysia,47.75,10.48,29.78,56.27,23.67,37.17,5.980408,116.0734568,2018
Kuala Lumpur, Malaysia,46.28,17.96,32.62,47.17,27.39,80.73,3.139003,101.686855,2018
Penang, Malaysia,49.5,10.67,30.78,56.99,26.28,68.42,5.4163935,100.3326786,2018
Selangor, Malaysia,46.04,11.34,29.31,50.35,23.26,88.61,3.0738379,101.5183469,2018
Malta, Malta,68.44,26.6,48.26,54.11,69,72.13,35.937496,14.375416,2018
Sliema, Malta,78.94,36.17,58.32,69.3,89.2,74.89,35.9110081,14.502904,2018
Cancun, Mexico,35.58,9.8,23.15,29.93,35.3,61.69,21.161908,-86.8515279,2018
Guadalajara, Mexico,34.19,10.12,22.58,33.15,30.82,71.87,20.6596988,-103.3496092,2018
Merida, Mexico,33.18,7.58,20.83,32.01,26.75,37.23,20.9673702,-89.5925857,2018
Mexico City, Mexico,37.54,17.84,28.04,34.66,32.65,64.03,19.4326077,-99.133208,2018
Monterrey, Mexico,38.45,11.52,25.46,35.16,38.06,84.22,25.6866142,-100.3161126,2018
Puerto Vallarta, Mexico,32.7,11.52,22.48,32.27,31.03,62.36,20.653407,-105.2253316,2018
Queretaro, Mexico,33.51,9.52,21.94,33.17,27.96,63.18,20.5887932,-100.3898881,2018
Tijuana, Mexico,34.13,10.81,22.88,32.67,32.65,45.26,32.5149469,-117.0382471,2018
Chisinau, Moldova,34.06,9.35,22.14,27.64,25.5,31.39,47.0104529,28.8638102,2018
Ulaanbaatar, Mongolia,38.13,11.34,25.21,37.23,25.59,33.71,47.8863988,106.9057439,2018
Podgorica, Montenegro,44.68,11.1,28.48,35.64,37.75,51.8,42.4304196,19.2593642,2018
Casablanca, Morocco,38.81,16.45,28.02,33.78,28.81,47.32,33.5731104,-7.5898434,2018
Rabat, Morocco,41.62,13.47,28.04,37.31,27.57,45.29,33.9715904,-6.8498129,2018
Kathmandu, Nepal,36.06,5.83,21.48,33.22,21.92,23.73,27.7172453,85.3239605,2018
Amsterdam, Netherlands,89.14,58.22,74.23,70.13,95.2,101.7,52.3679843,4.9035614,2018
Eindhoven, Netherlands,78.72,35.2,57.73,63.05,88.51,119.87,51.441642,5.4697225,2018
Groningen, Netherlands,76.64,30.91,54.59,66.99,87.82,105.46,53.2193835,6.5665017,2018
Maastricht, Netherlands,80.69,33.35,57.86,70.13,81.68,105.35,50.8513682,5.6909725,2018
Rotterdam, Netherlands,82.64,35.28,59.8,63.02,94.81,102.03,51.9244201,4.4777326,2018
The Hague (Den Haag), Netherlands,84.97,35.55,61.14,70.25,89.11,106.25,52.0704978,4.3006999,2018
Utrecht, Netherlands,83.34,40.23,62.55,68.39,97.89,105.9,52.0907374,5.1214201,2018
Auckland, New Zealand,86.93,46.95,67.65,79.21,72.26,99.37,-36.8484597,174.7633315,2018
Christchurch, New Zealand,80.51,30.13,56.21,75.7,78.95,90.4,-43.5320544,172.6362254,2018
Hamilton, New Zealand,88.09,26.98,58.62,81.69,84.97,128.21,-37.7870012,175.279253,2018
Wellington, New Zealand,80.87,40.42,61.36,77.17,72.02,118.59,-41.2864603,174.776236,2018
Bergen, Norway,112.31,40.3,77.58,101.79,119.61,99.29,60.3912628,5.3220544,2018
Oslo, Norway,117.23,49.28,84.46,112.42,124.09,102.94,59.9138688,10.7522454,2018
Stavanger, Norway,118.61,39.83,80.61,106.09,143.54,118.14,58.9699756,5.7331074,2018
Trondheim, Norway,114.22,42.39,79.58,103.5,134.76,108.29,63.4305149,10.3950528,2018
Muscat, Oman,51.2,25.41,38.76,46.81,51.63,103.55,23.58589,58.4059227,2018
Islamabad, Pakistan,30.83,8.79,20.2,28.5,23.5,43.2,33.6844202,73.0478848,2018
Karachi, Pakistan,27.1,7.46,17.63,25.6,21.62,39.06,24.8607343,67.0011364,2018
Lahore, Pakistan,29.53,6.67,18.5,26.83,26.39,51.44,31.5203696,74.3587473,2018
Panama City, Panama,57.23,32.46,45.29,56.48,52.95,38.24,8.9823792,-79.5198696,2018
Asuncion, Paraguay,36.16,10.71,23.88,30.88,27.65,34.68,-25.2637399,-57.575926,2018
Lima, Peru,43.92,17.91,31.38,39.88,31.53,39.55,-12.0463731,-77.042754,2018
Cebu, Philippines,41.81,11.84,27.36,43.31,24.71,26.16,10.607936,123.8857747,2018
Davao, Philippines,33.67,6.84,20.73,32.75,16.83,28.86,7.190708,125.455341,2018
Makati, Philippines,55.54,26.91,41.73,59.97,28.91,46.37,14.554729,121.0244452,2018
Manila, Philippines,42.4,19.94,31.57,38.19,29.13,43.04,14.5995124,120.9842195,2018
Quezon City, Philippines,33.93,7.79,21.33,29.54,19.44,29.57,14.6760413,121.0437003,2018
Valenzuela, Philippines,31.23,3.82,18.01,32.44,12.95,31.9,14.7010556,120.9830225,2018
Bydgoszcz, Poland,44.91,15.1,30.53,35.24,37.73,66.01,53.1234804,18.0084378,2018
Gdansk, Poland,49.01,17.8,33.96,36.86,40.96,72.77,54.3520252,18.6466384,2018
Gdynia, Poland,47.86,14.6,31.82,38.15,43.91,72.98,54.5188898,18.5305409,2018
Katowice, Poland,42.28,12.37,27.86,34.17,32.56,81.77,50.2648919,19.0237815,2018
Krakow (Cracow), Poland,45.79,18.18,32.48,36.66,38.32,73.59,50.0646501,19.9449799,2018
Lodz, Poland,43.68,12.79,28.78,34.02,36.68,70.09,51.7592485,19.4559833,2018
Lublin, Poland,42.33,18.04,30.62,34.52,34.11,57.02,51.2464536,22.5684463,2018
Poznan, Poland,45.27,15.45,30.89,37.57,37.54,74.63,52.406374,16.9251681,2018
Szczecin, Poland,44.61,12.73,29.23,35.91,34.7,60.33,53.4285438,14.5528116,2018
Warsaw, Poland,48.31,22.5,35.86,38.53,42.2,77.31,52.2296756,21.0122287,2018
Wroclaw, Poland,46.27,19.64,33.43,38.06,39.12,74.19,51.1078852,17.0385376,2018
Braga, Portugal,51.43,12.28,32.55,42.67,36.9,71.62,41.5454486,-8.426507,2018
Coimbra, Portugal,54.5,14.58,35.25,46.39,42.38,75.56,40.2033145,-8.4102573,2018
Lisbon, Portugal,57.69,29.33,44.01,47.02,50.14,58.48,38.7222524,-9.1393366,2018
Porto, Portugal,54.92,20.87,38.5,45.79,44.12,63.31,41.1579438,-8.6291053,2018
San Juan, Puerto Rico,68.77,26.09,48.18,66.18,57.67,116.19,18.4655394,-66.1057355,2018
Doha, Qatar,66.12,66.84,66.46,57.95,65.81,120.86,25.2854473,51.5310398,2018
Arad, Romania,36.47,9.22,23.33,30.52,28.55,60.77,46.1865606,21.3122677,2018
Brasov, Romania,38.37,9.96,24.67,31.4,33.82,67.91,45.6579755,25.6011977,2018
Bucharest, Romania,44.38,14,29.73,36.6,40.58,58.75,44.4267674,26.1025384,2018
Cluj-Napoca, Romania,40.51,13.6,27.54,34.7,33.06,59.81,46.7712101,23.6236353,2018
Craiova, Romania,34.34,6.84,21.07,28.61,25.41,58.56,44.3301785,23.7948807,2018
Iasi, Romania,39.81,10.55,25.7,33.52,34.64,51.29,47.1584549,27.6014418,2018
Sibiu, Romania,39.5,8.46,24.53,32.76,33.38,54.27,45.7983273,24.1255826,2018
Timisoara, Romania,41.62,10.78,26.75,34.26,36.97,59.09,45.7488716,21.2086793,2018
Moscow, Russia,51.82,34.1,43.27,40.9,56.03,59.58,55.755826,37.6172999,2018
Novosibirsk, Russia,39.86,12.16,26.5,35.77,34.9,47.89,55.0083526,82.9357327,2018
Saint Petersburg, Russia,46.41,20.17,33.75,38.12,47.73,56.75,59.9342802,30.3350986,2018
Yekaterinburg, Russia,42.05,12.4,27.75,37.86,36.08,52.61,56.8389261,60.6057025,2018
Kigali, Rwanda,37.18,11.85,24.96,31.27,27.33,28.22,-1.9705786,30.1044288,2018
Ad Dammam, Saudi Arabia,48.87,12.68,31.41,42.33,32.19,141.35,26.4206828,50.0887943,2018
Al Khobar, Saudi Arabia,50.18,15.67,33.53,44.86,33.74,124.32,26.2171906,50.1971381,2018
Jeddah (Jiddah), Saudi Arabia,51,14.41,33.35,43.21,34.15,113.18,21.485811,39.1925048,2018
